{
   "type": "FeatureCollection",
   "features": [
  {
    "type": "Feature",
    "geometry": {
       "type": "Point",
       "coordinates":  [ 121.5022901,25.1369406 ]
    },
    "properties": {
    "收容所編號":"SA100-0002",
    "名稱":"螢橋國中",
    "鄉鎮":"中正區",
    "震災":"備用",
    "容納人數":52,
    "地址":"臺北市中正區林興里汀州路三段四號"
    }
  },
  {
    "type": "Feature",
    "geometry": {
       "type": "Point",
       "coordinates":  [ 121.5155445,25.0402983 ]
    },
    "properties": {
    "收容所編號":"SA100-0003\n",
    "名稱":"北市大附小",
    "鄉鎮":"中正區",
    "震災":"是",
    "容納人數":157,
    "地址":"臺北市中正區黎明里公園路29號"
    }
  },
  {
    "type": "Feature",
    "geometry": {
       "type": "Point",
       "coordinates":  [ 121.5645793,25.0634023 ]
    },
    "properties": {
    "收容所編號":"SA100-0004\n",
    "名稱":"弘道國中",
    "鄉鎮":"中正區",
    "震災":"是",
    "容納人數":130,
    "地址":"臺北市中正區建國里公園路21號"
    }
  },
  {
    "type": "Feature",
    "geometry": {
       "type": "Point",
       "coordinates":  [ 121.5623497,25.0761614 ]
    },
    "properties": {
    "收容所編號":"SA100-0005\n",
    "名稱":"二二八和平公園",
    "鄉鎮":"中正區",
    "震災":"是",
    "容納人數":5424,
    "地址":"臺北市中正區黎明里凱達格蘭大道3號"
    }
  },
  {
    "type": "Feature",
    "geometry": {
       "type": "Point",
       "coordinates":  [ 121.5290357,25.0948074 ]
    },
    "properties": {
    "收容所編號":"SA100-0006\n",
    "名稱":"臺北市中正運動中心",
    "鄉鎮":"中正區",
    "震災":"備用",
    "容納人數":250,
    "地址":"臺北市中正區東門里信義路一段1號"
    }
  },
  {
    "type": "Feature",
    "geometry": {
       "type": "Point",
       "coordinates":  [ 121.5248232,25.0924085 ]
    },
    "properties": {
    "收容所編號":"SA100-0007",
    "名稱":"中正國中",
    "鄉鎮":"中正區",
    "震災":"備用",
    "容納人數":300,
    "地址":"臺北市中正區新營里愛國東路158號"
    }
  },
  {
    "type": "Feature",
    "geometry": {
       "type": "Point",
       "coordinates":  [ 121.4751696,25.0817604 ]
    },
    "properties": {
    "收容所編號":"SA100-0008\n",
    "名稱":"北一女中",
    "鄉鎮":"中正區",
    "震災":"備用",
    "容納人數":60,
    "地址":"臺北市中正區建國里重慶南路一段165號"
    }
  },
  {
    "type": "Feature",
    "geometry": {
       "type": "Point",
       "coordinates":  [ 121.5362672,25.0336422 ]
    },
    "properties": {
    "收容所編號":"SA100-0009\n",
    "名稱":"古亭國中",
    "鄉鎮":"中正區",
    "震災":"備用",
    "容納人數":128,
    "地址":"臺北市中正區永功里中華路二段465號"
    }
  },
  {
    "type": "Feature",
    "geometry": {
       "type": "Point",
       "coordinates":  [ 121.60382,25.0827692 ]
    },
    "properties": {
    "收容所編號":"SA100-0010\n",
    "名稱":"成功高中",
    "鄉鎮":"中正區",
    "震災":"備用",
    "容納人數":31,
    "地址":"臺北市中正區幸福里濟南路一段71號"
    }
  },
  {
    "type": "Feature",
    "geometry": {
       "type": "Point",
       "coordinates":  [ 121.6005675,25.0882053 ]
    },
    "properties": {
    "收容所編號":"SA100-0011\n",
    "名稱":"忠孝國小",
    "鄉鎮":"中正區",
    "震災":"備用",
    "容納人數":30,
    "地址":"臺北市中正區梅花里忠孝東路二段101號"
    }
  },
  {
    "type": "Feature",
    "geometry": {
       "type": "Point",
       "coordinates":  [ 121.5027458,25.1333504 ]
    },
    "properties": {
    "收容所編號":"SA100-0012\n",
    "名稱":"東門國小",
    "鄉鎮":"中正區",
    "震災":"備用",
    "容納人數":100,
    "地址":"臺北市中正區東門里仁愛路一段2-4號"
    }
  },
  {
    "type": "Feature",
    "geometry": {
       "type": "Point",
       "coordinates":  [ 121.543251,25.0634804 ]
    },
    "properties": {
    "收容所編號":"SA100-0013\n",
    "名稱":"河堤國小",
    "鄉鎮":"中正區",
    "震災":"備用",
    "容納人數":72,
    "地址":"臺北市中正區河堤里汀州路二段180號"
    }
  },
  {
    "type": "Feature",
    "geometry": {
       "type": "Point",
       "coordinates":  [ 121.5333661,25.1199089 ]
    },
    "properties": {
    "收容所編號":"SA100-0014\n",
    "名稱":"南門國小",
    "鄉鎮":"中正區",
    "震災":"備用",
    "容納人數":10,
    "地址":"臺北市中正區南門里廣州街6號"
    }
  },
  {
    "type": "Feature",
    "geometry": {
       "type": "Point",
       "coordinates":  [ 121.5162805,25.0358766 ]
    },
    "properties": {
    "收容所編號":"SA100-0015\n",
    "名稱":"南門國中",
    "鄉鎮":"中正區",
    "震災":"備用",
    "容納人數":151,
    "地址":"臺北市中正區南門里廣州街6號"
    }
  },
  {
    "type": "Feature",
    "geometry": {
       "type": "Point",
       "coordinates":  [ 121.5108368,25.1368667 ]
    },
    "properties": {
    "收容所編號":"SA100-0016\n",
    "名稱":"建國中學",
    "鄉鎮":"中正區",
    "震災":"備用",
    "容納人數":300,
    "地址":"臺北市中正區龍光里南海路56號"
    }
  },
  {
    "type": "Feature",
    "geometry": {
       "type": "Point",
       "coordinates":  [ 121.5080838,25.1370971 ]
    },
    "properties": {
    "收容所編號":"SA100-0017\n",
    "名稱":"國語實小",
    "鄉鎮":"中正區",
    "震災":"備用",
    "容納人數":49,
    "地址":"臺北市中正區龍光里南海路58號"
    }
  },
  {
    "type": "Feature",
    "geometry": {
       "type": "Point",
       "coordinates":  [ 121.5152991,25.0375581 ]
    },
    "properties": {
    "收容所編號":"SA100-0018",
    "名稱":"螢橋國小",
    "鄉鎮":"中正區",
    "震災":"備用",
    "容納人數":303,
    "地址":"臺北市中正區螢雪里詔安街29號"
    }
  },
  {
    "type": "Feature",
    "geometry": {
       "type": "Point",
       "coordinates":  [ 121.5570362,25.0580325 ]
    },
    "properties": {
    "收容所編號":"SA100-0024",
    "名稱":"忠義國小",
    "鄉鎮":"中正區",
    "震災":"備用",
    "容納人數":50,
    "地址":"臺北市中正區忠勤里臺北市中正區中華路二段307巷17號"
    }
  },
  {
    "type": "Feature",
    "geometry": {
       "type": "Point",
       "coordinates":  [ 121.5659437,25.0600934 ]
    },
    "properties": {
    "收容所編號":"SA103-0001\n",
    "名稱":"延平國小",
    "鄉鎮":"大同區",
    "震災":"備用",
    "容納人數":88,
    "地址":"臺北市大同區國慶里昌吉街97號"
    }
  },
  {
    "type": "Feature",
    "geometry": {
       "type": "Point",
       "coordinates":  [ 121.5623183,25.0622135 ]
    },
    "properties": {
    "收容所編號":"SA103-0002\n",
    "名稱":"重慶國中",
    "鄉鎮":"大同區",
    "震災":"備用",
    "容納人數":50,
    "地址":"臺北市大同區重慶里敦煌路19號"
    }
  },
  {
    "type": "Feature",
    "geometry": {
       "type": "Point",
       "coordinates":  [ 121.562343,25.0625273 ]
    },
    "properties": {
    "收容所編號":"SA103-0003\n",
    "名稱":"忠孝國中",
    "鄉鎮":"大同區",
    "震災":"是",
    "容納人數":131,
    "地址":"臺北市大同區玉泉里西寧北路32號"
    }
  },
  {
    "type": "Feature",
    "geometry": {
       "type": "Point",
       "coordinates":  [ 121.5849826,25.0425542 ]
    },
    "properties": {
    "收容所編號":"SA103-0004\n",
    "名稱":"建成國中",
    "鄉鎮":"大同區",
    "震災":"是",
    "容納人數":119,
    "地址":"臺北市大同區建泰里長安西路37之1號"
    }
  },
  {
    "type": "Feature",
    "geometry": {
       "type": "Point",
       "coordinates":  [ 121.5074169,25.0501096 ]
    },
    "properties": {
    "收容所編號":"SA103-0005\n",
    "名稱":"玉泉公園",
    "鄉鎮":"大同區",
    "震災":"是",
    "容納人數":1993,
    "地址":"臺北市大同區玉泉里西寜北路28號"
    }
  },
  {
    "type": "Feature",
    "geometry": {
       "type": "Point",
       "coordinates":  [ 121.5101803,25.1131299 ]
    },
    "properties": {
    "收容所編號":"SA103-0006\n",
    "名稱":"臺北市大同運動中心",
    "鄉鎮":"大同區",
    "震災":"備用",
    "容納人數":300,
    "地址":"臺北市大同區蓬萊里大龍街51號"
    }
  },
  {
    "type": "Feature",
    "geometry": {
       "type": "Point",
       "coordinates":  [ 121.5024962,25.1182122 ]
    },
    "properties": {
    "收容所編號":"SA103-0007\n",
    "名稱":"大同國小",
    "鄉鎮":"大同區",
    "震災":"備用",
    "容納人數":183,
    "地址":"臺北市大同區蓬萊里大龍街51號"
    }
  },
  {
    "type": "Feature",
    "geometry": {
       "type": "Point",
       "coordinates":  [ 121.5871226,25.0473523 ]
    },
    "properties": {
    "收容所編號":"SA103-0008\n",
    "名稱":"大橋國小",
    "鄉鎮":"大同區",
    "震災":"備用",
    "容納人數":196,
    "地址":"臺北市大同區隆和里重慶北路三段2號"
    }
  },
  {
    "type": "Feature",
    "geometry": {
       "type": "Point",
       "coordinates":  [ 121.5348889,25.0376284 ]
    },
    "properties": {
    "收容所編號":"SA103-0009\n",
    "名稱":"大龍國小",
    "鄉鎮":"大同區",
    "震災":"備用",
    "容納人數":208,
    "地址":"臺北市大同區保安里哈密街47號"
    }
  },
  {
    "type": "Feature",
    "geometry": {
       "type": "Point",
       "coordinates":  [ 121.5072911,25.050985 ]
    },
    "properties": {
    "收容所編號":"SA103-0010\n",
    "名稱":"太平國小",
    "鄉鎮":"大同區",
    "震災":"備用",
    "容納人數":123,
    "地址":"臺北市大同區南芳里延平北路二段239號"
    }
  },
  {
    "type": "Feature",
    "geometry": {
       "type": "Point",
       "coordinates":  [ 121.526678,25.1041858 ]
    },
    "properties": {
    "收容所編號":"SA103-0011\n",
    "名稱":"日新國小",
    "鄉鎮":"大同區",
    "震災":"備用",
    "容納人數":137,
    "地址":"臺北市大同區星明里太原路151號"
    }
  },
  {
    "type": "Feature",
    "geometry": {
       "type": "Point",
       "coordinates":  [ 121.5480159,25.0797677 ]
    },
    "properties": {
    "收容所編號":"SA103-0012\n",
    "名稱":"民權國中",
    "鄉鎮":"大同區",
    "震災":"備用",
    "容納人數":30,
    "地址":"臺北市大同區隆和里重慶北路三段1號"
    }
  },
  {
    "type": "Feature",
    "geometry": {
       "type": "Point",
       "coordinates":  [ 121.5722586,25.035644 ]
    },
    "properties": {
    "收容所編號":"SA103-0013\n",
    "名稱":"永樂國小",
    "鄉鎮":"大同區",
    "震災":"備用",
    "容納人數":304,
    "地址":"臺北市大同區南芳里延平北路二段266號"
    }
  },
  {
    "type": "Feature",
    "geometry": {
       "type": "Point",
       "coordinates":  [ 121.5057612,25.0902487 ]
    },
    "properties": {
    "收容所編號":"SA103-0014\n",
    "名稱":"成淵高中",
    "鄉鎮":"大同區",
    "震災":"備用",
    "容納人數":487,
    "地址":"臺北市大同區民權里承德路二段235號"
    }
  },
  {
    "type": "Feature",
    "geometry": {
       "type": "Point",
       "coordinates":  [ 121.5205405,25.0703871 ]
    },
    "properties": {
    "收容所編號":"SA103-0015\n",
    "名稱":"明倫高中",
    "鄉鎮":"大同區",
    "震災":"備用",
    "容納人數":70,
    "地址":"臺北市大同區重慶里承德路三段336號"
    }
  },
  {
    "type": "Feature",
    "geometry": {
       "type": "Point",
       "coordinates":  [ 121.5623497,25.0761614 ]
    },
    "properties": {
    "收容所編號":"SA103-0016\n",
    "名稱":"蓬萊國小",
    "鄉鎮":"大同區",
    "震災":"備用",
    "容納人數":104,
    "地址":"臺北市大同區星明里寧夏路35號"
    }
  },
  {
    "type": "Feature",
    "geometry": {
       "type": "Point",
       "coordinates":  [ 121.5070346,25.0223116 ]
    },
    "properties": {
    "收容所編號":"SA103-0017\n",
    "名稱":"雙蓮國小",
    "鄉鎮":"大同區",
    "震災":"備用",
    "容納人數":300,
    "地址":"臺北市大同區民權里錦西街51號"
    }
  },
  {
    "type": "Feature",
    "geometry": {
       "type": "Point",
       "coordinates":  [ 121.5185773,25.0859766 ]
    },
    "properties": {
    "收容所編號":"SA103-0018\n",
    "名稱":"蘭州國中",
    "鄉鎮":"大同區",
    "震災":"備用",
    "容納人數":34,
    "地址":"臺北市大同區至聖里大龍街187巷1號"
    }
  },
  {
    "type": "Feature",
    "geometry": {
       "type": "Point",
       "coordinates":  [ 121.5912019,25.0457066 ]
    },
    "properties": {
    "收容所編號":"SA103-0019\n",
    "名稱":"大同251號綠地",
    "鄉鎮":"大同區",
    "震災":"是",
    "容納人數":1019,
    "地址":"臺北市大同區老師里環河北路與敦煌路口三角綠地"
    }
  },
  {
    "type": "Feature",
    "geometry": {
       "type": "Point",
       "coordinates":  [ 121.518523,25.0547521 ]
    },
    "properties": {
    "收容所編號":"SA103-0020\n",
    "名稱":"建成公園",
    "鄉鎮":"大同區",
    "震災":"是",
    "容納人數":923,
    "地址":"臺北市大同區光能里承德路二段35號旁"
    }
  },
  {
    "type": "Feature",
    "geometry": {
       "type": "Point",
       "coordinates":  [ 121.5196574,25.0504086 ]
    },
    "properties": {
    "收容所編號":"SA104-0001\n",
    "名稱":"新興國中",
    "鄉鎮":"中山區",
    "震災":"是",
    "容納人數":156,
    "地址":"臺北市中山區聚葉里林森北路511號"
    }
  },
  {
    "type": "Feature",
    "geometry": {
       "type": "Point",
       "coordinates":  [ 121.518201,25.0907401 ]
    },
    "properties": {
    "收容所編號":"SA104-0002\n",
    "名稱":"五常國中",
    "鄉鎮":"中山區",
    "震災":"是",
    "容納人數":247,
    "地址":"臺北市中山區下埤里復興北路430巷1號"
    }
  },
  {
    "type": "Feature",
    "geometry": {
       "type": "Point",
       "coordinates":  [ 121.5892626,25.0448591 ]
    },
    "properties": {
    "收容所編號":"SA104-0003\n",
    "名稱":"中山國小",
    "鄉鎮":"中山區",
    "震災":"備用",
    "容納人數":216,
    "地址":"臺北市中山區恆安里民權東路一段69號"
    }
  },
  {
    "type": "Feature",
    "geometry": {
       "type": "Point",
       "coordinates":  [ 121.5241862,25.1185998 ]
    },
    "properties": {
    "收容所編號":"SA104-0004\n",
    "名稱":"榮星花園公園",
    "鄉鎮":"中山區",
    "震災":"是",
    "容納人數":3464,
    "地址":"臺北市中山區下埤里民權東路三段1號"
    }
  },
  {
    "type": "Feature",
    "geometry": {
       "type": "Point",
       "coordinates":  [ 121.5948704,25.080146 ]
    },
    "properties": {
    "收容所編號":"SA104-0005\n",
    "名稱":"中山區行政中心大禮堂",
    "鄉鎮":"中山區",
    "震災":"備用",
    "容納人數":84,
    "地址":"臺北市中山區行政里松江路367號10樓"
    }
  },
  {
    "type": "Feature",
    "geometry": {
       "type": "Point",
       "coordinates":  [ 121.5708966,25.0357033 ]
    },
    "properties": {
    "收容所編號":"SA104-0006\n",
    "名稱":"臺北市中山運動中心",
    "鄉鎮":"中山區",
    "震災":"備用",
    "容納人數":184,
    "地址":"臺北市中山區民安里中山北路二段44巷2號"
    }
  },
  {
    "type": "Feature",
    "geometry": {
       "type": "Point",
       "coordinates":  [ 121.5023612,25.1390411 ]
    },
    "properties": {
    "收容所編號":"SA104-0007\n",
    "名稱":"新生公園棒球場",
    "鄉鎮":"中山區",
    "震災":"備用",
    "容納人數":60,
    "地址":"臺北市中山區新庄里新生北路三段105號"
    }
  },
  {
    "type": "Feature",
    "geometry": {
       "type": "Point",
       "coordinates":  [ 121.544702,24.9951376 ]
    },
    "properties": {
    "收容所編號":"SA104-0008\n",
    "名稱":"大同高中",
    "鄉鎮":"中山區",
    "震災":"備用",
    "容納人數":300,
    "地址":"臺北市中山區中央里長春路167號"
    }
  },
  {
    "type": "Feature",
    "geometry": {
       "type": "Point",
       "coordinates":  [ 121.5611665,25.0266243 ]
    },
    "properties": {
    "收容所編號":"SA104-0009\n",
    "名稱":"大佳國小",
    "鄉鎮":"中山區",
    "震災":"備用",
    "容納人數":30,
    "地址":"臺北市中山區大佳里濱江街107號"
    }
  },
  {
    "type": "Feature",
    "geometry": {
       "type": "Point",
       "coordinates":  [ 121.5576565,25.0265331 ]
    },
    "properties": {
    "收容所編號":"SA104-0010\n",
    "名稱":"大直高中",
    "鄉鎮":"中山區",
    "震災":"備用",
    "容納人數":300,
    "地址":"臺北市中山區劍潭里北安路420號"
    }
  },
  {
    "type": "Feature",
    "geometry": {
       "type": "Point",
       "coordinates":  [ 121.5490424,24.9957415 ]
    },
    "properties": {
    "收容所編號":"SA104-0011",
    "名稱":"大直國小",
    "鄉鎮":"中山區",
    "震災":"備用",
    "容納人數":263,
    "地址":"臺北市中山區大直里大直街2號"
    }
  },
  {
    "type": "Feature",
    "geometry": {
       "type": "Point",
       "coordinates":  [ 121.5436013,24.9966064 ]
    },
    "properties": {
    "收容所編號":"SA104-0013\n",
    "名稱":"中正國小",
    "鄉鎮":"中山區",
    "震災":"備用",
    "容納人數":250,
    "地址":"臺北市中山區力行里龍江路62號"
    }
  },
  {
    "type": "Feature",
    "geometry": {
       "type": "Point",
       "coordinates":  [ 121.5273662,25.0471469 ]
    },
    "properties": {
    "收容所編號":"SA104-0014\n",
    "名稱":"五常國小",
    "鄉鎮":"中山區",
    "震災":"備用",
    "容納人數":372,
    "地址":"臺北市中山區下埤里五常街16號"
    }
  },
  {
    "type": "Feature",
    "geometry": {
       "type": "Point",
       "coordinates":  [ 121.5054173,25.1378856 ]
    },
    "properties": {
    "收容所編號":"SA104-0015\n",
    "名稱":"北安國中",
    "鄉鎮":"中山區",
    "震災":"備用",
    "容納人數":30,
    "地址":"臺北市中山區劍潭里明水路325號"
    }
  },
  {
    "type": "Feature",
    "geometry": {
       "type": "Point",
       "coordinates":  [ 121.5063952,25.1382759 ]
    },
    "properties": {
    "收容所編號":"SA104-0016\n",
    "名稱":"永安國小",
    "鄉鎮":"中山區",
    "震災":"備用",
    "容納人數":30,
    "地址":"臺北市中山區永安里明水路397巷19弄1號"
    }
  },
  {
    "type": "Feature",
    "geometry": {
       "type": "Point",
       "coordinates":  [ 121.5030401,25.0262599 ]
    },
    "properties": {
    "收容所編號":"SA104-0017\n",
    "名稱":"吉林國小",
    "鄉鎮":"中山區",
    "震災":"備用",
    "容納人數":313,
    "地址":"臺北市中山區中原里長春路116號"
    }
  },
  {
    "type": "Feature",
    "geometry": {
       "type": "Point",
       "coordinates":  [ 121.5259829,25.0617989 ]
    },
    "properties": {
    "收容所編號":"SA104-0018\n",
    "名稱":"長安國小",
    "鄉鎮":"中山區",
    "震災":"備用",
    "容納人數":300,
    "地址":"臺北市中山區興亞里吉林路15號"
    }
  },
  {
    "type": "Feature",
    "geometry": {
       "type": "Point",
       "coordinates":  [ 121.542962,25.0621116 ]
    },
    "properties": {
    "收容所編號":"SA104-0019\n",
    "名稱":"長安國中",
    "鄉鎮":"中山區",
    "震災":"備用",
    "容納人數":41,
    "地址":"臺北市中山區興亞里松江路70巷11號"
    }
  },
  {
    "type": "Feature",
    "geometry": {
       "type": "Point",
       "coordinates":  [ 121.582954,25.0827402 ]
    },
    "properties": {
    "收容所編號":"SA104-0020\n",
    "名稱":"長春國小",
    "鄉鎮":"中山區",
    "震災":"備用",
    "容納人數":47,
    "地址":"臺北市中山區中央里長春路165號"
    }
  },
  {
    "type": "Feature",
    "geometry": {
       "type": "Point",
       "coordinates":  [ 121.5223384,25.0525721 ]
    },
    "properties": {
    "收容所編號":"SA104-0021\n",
    "名稱":"濱江國小",
    "鄉鎮":"中山區",
    "震災":"備用",
    "容納人數":114,
    "地址":"臺北市中山區行孝里樂群二路266巷99號"
    }
  },
  {
    "type": "Feature",
    "geometry": {
       "type": "Point",
       "coordinates":  [ 121.5300421,25.0979337 ]
    },
    "properties": {
    "收容所編號":"SA104-0022\n",
    "名稱":"濱江實中",
    "鄉鎮":"中山區",
    "震災":"備用",
    "容納人數":100,
    "地址":"臺北市中山區金泰里樂群二路262號"
    }
  },
  {
    "type": "Feature",
    "geometry": {
       "type": "Point",
       "coordinates":  [ 121.5514917,25.0009119 ]
    },
    "properties": {
    "收容所編號":"SA104-0023\n",
    "名稱":"懷生國小",
    "鄉鎮":"中山區",
    "震災":"備用",
    "容納人數":30,
    "地址":"臺北市中山區埤頭里安東街16巷2號"
    }
  },
  {
    "type": "Feature",
    "geometry": {
       "type": "Point",
       "coordinates":  [ 121.5722627,25.0356457 ]
    },
    "properties": {
    "收容所編號":"SA104-0025\n",
    "名稱":"下塔悠\n(公7)公園",
    "鄉鎮":"中山區",
    "震災":"是",
    "容納人數":2105,
    "地址":"臺北市中山區金泰里樂群一路旁,基隆河截彎取直範圍內"
    }
  },
  {
    "type": "Feature",
    "geometry": {
       "type": "Point",
       "coordinates":  [ 121.5383384,25.0234567 ]
    },
    "properties": {
    "收容所編號":"SA104-0026\n",
    "名稱":"華山公園",
    "鄉鎮":"中山區",
    "震災":"是",
    "容納人數":1271,
    "地址":"臺北市中山區正得、正守里市民大道二段"
    }
  },
  {
    "type": "Feature",
    "geometry": {
       "type": "Point",
       "coordinates":  [ 121.5610887,24.9809373 ]
    },
    "properties": {
    "收容所編號":"SA104-0027\n",
    "名稱":"金泰(公8)公園",
    "鄉鎮":"中山區",
    "震災":"是",
    "容納人數":14117,
    "地址":"臺北市中山區金泰里樂群一路旁,基隆河截彎取直範圍內"
    }
  },
  {
    "type": "Feature",
    "geometry": {
       "type": "Point",
       "coordinates":  [ 121.5860526,25.0698092 ]
    },
    "properties": {
    "收容所編號":"SA104-0028\n",
    "名稱":"明水公園",
    "鄉鎮":"中山區",
    "震災":"是",
    "容納人數":868,
    "地址":"臺北市中山區永安里北安路538巷1弄1號前"
    }
  },
  {
    "type": "Feature",
    "geometry": {
       "type": "Point",
       "coordinates":  [ 121.5373493,25.1179664 ]
    },
    "properties": {
    "收容所編號":"SA104-0042",
    "名稱":"中山女高",
    "鄉鎮":"中山區",
    "震災":"備用",
    "容納人數":135,
    "地址":"臺北市中山區力行里長安東路二段141號"
    }
  },
  {
    "type": "Feature",
    "geometry": {
       "type": "Point",
       "coordinates":  [ 121.5582738,25.0294154 ]
    },
    "properties": {
    "收容所編號":"SA104-0045",
    "名稱":"花博公園\n圓山園區",
    "鄉鎮":"中山區",
    "震災":"是",
    "容納人數":13517,
    "地址":"臺北市中山區圓山里玉門街1號.(玉泉街以東,中山北路以西,酒泉街以北)"
    }
  },
  {
    "type": "Feature",
    "geometry": {
       "type": "Point",
       "coordinates":  [ 121.5277936,25.1123991 ]
    },
    "properties": {
    "收容所編號":"SA105-0001\n",
    "名稱":"民生國中",
    "鄉鎮":"松山區",
    "震災":"是",
    "容納人數":161,
    "地址":"臺北市松山區新東里新東街30巷1號"
    }
  },
  {
    "type": "Feature",
    "geometry": {
       "type": "Point",
       "coordinates":  [ 121.516319,25.0946614 ]
    },
    "properties": {
    "收容所編號":"SA105-0002\n",
    "名稱":"三民國小",
    "鄉鎮":"松山區",
    "震災":"是",
    "容納人數":140,
    "地址":"臺北市松山區莊敬里民權東路五段1號"
    }
  },
  {
    "type": "Feature",
    "geometry": {
       "type": "Point",
       "coordinates":  [ 121.5226708,25.0943557 ]
    },
    "properties": {
    "收容所編號":"SA105-0003\n",
    "名稱":"敦化國中",
    "鄉鎮":"松山區",
    "震災":"備用",
    "容納人數":253,
    "地址":"臺北市松山區中正里南京東路三段300號"
    }
  },
  {
    "type": "Feature",
    "geometry": {
       "type": "Point",
       "coordinates":  [ 121.5040789,25.1551929 ]
    },
    "properties": {
    "收容所編號":"SA105-0004\n",
    "名稱":"民生國小",
    "鄉鎮":"松山區",
    "震災":"備用",
    "容納人數":126,
    "地址":"臺北市松山區中華里敦化北路199巷18號"
    }
  },
  {
    "type": "Feature",
    "geometry": {
       "type": "Point",
       "coordinates":  [ 121.5348594,25.0565183 ]
    },
    "properties": {
    "收容所編號":"SA105-0005\n",
    "名稱":"民權公園",
    "鄉鎮":"松山區",
    "震災":"是",
    "容納人數":2465,
    "地址":"臺北市松山區東榮里民權東路四段、民權國小附近"
    }
  },
  {
    "type": "Feature",
    "geometry": {
       "type": "Point",
       "coordinates":  [ 121.5161576,25.0648806 ]
    },
    "properties": {
    "收容所編號":"SA105-0006\n",
    "名稱":"臺北市松山運動中心",
    "鄉鎮":"松山區",
    "震災":"備用",
    "容納人數":180,
    "地址":"臺北市松山區中正里敦化北路1號"
    }
  },
  {
    "type": "Feature",
    "geometry": {
       "type": "Point",
       "coordinates":  [ 121.5426697,25.0317187 ]
    },
    "properties": {
    "收容所編號":"SA105-0007\n",
    "名稱":"臺北田徑場",
    "鄉鎮":"松山區",
    "震災":"備用",
    "容納人數":440,
    "地址":"臺北市松山區中正里敦化北路3號"
    }
  },
  {
    "type": "Feature",
    "geometry": {
       "type": "Point",
       "coordinates":  [ 121.5504269,25.0189218 ]
    },
    "properties": {
    "收容所編號":"SA105-0008\n",
    "名稱":"臺北體育館",
    "鄉鎮":"松山區",
    "震災":"備用",
    "容納人數":1000,
    "地址":"臺北市松山區中正里南京東路四段10號"
    }
  },
  {
    "type": "Feature",
    "geometry": {
       "type": "Point",
       "coordinates":  [ 121.54625,25.0308602 ]
    },
    "properties": {
    "收容所編號":"SA105-0009\n",
    "名稱":"中山國中",
    "鄉鎮":"松山區",
    "震災":"備用",
    "容納人數":278,
    "地址":"臺北市松山區民有里復興北路361巷7號"
    }
  },
  {
    "type": "Feature",
    "geometry": {
       "type": "Point",
       "coordinates":  [ 121.5360181,25.0733728 ]
    },
    "properties": {
    "收容所編號":"SA105-0010\n",
    "名稱":"中崙高中",
    "鄉鎮":"松山區",
    "震災":"備用",
    "容納人數":300,
    "地址":"臺北市松山區吉祥里八德路四段101號"
    }
  },
  {
    "type": "Feature",
    "geometry": {
       "type": "Point",
       "coordinates":  [ 121.5430661,25.0787862 ]
    },
    "properties": {
    "收容所編號":"SA105-0019\n",
    "名稱":"民生公園",
    "鄉鎮":"松山區",
    "震災":"是",
    "容納人數":1554,
    "地址":"臺北市松山區介壽里民生東路五段36巷4弄與8弄間."
    }
  },
  {
    "type": "Feature",
    "geometry": {
       "type": "Point",
       "coordinates":  [ 121.544912,25.083415 ]
    },
    "properties": {
    "收容所編號":"SA105-1011\n",
    "名稱":"介壽國中",
    "鄉鎮":"松山區",
    "震災":"備用",
    "容納人數":242,
    "地址":"臺北市松山區介壽里延壽街401號"
    }
  },
  {
    "type": "Feature",
    "geometry": {
       "type": "Point",
       "coordinates":  [ 121.4912231,25.0308254 ]
    },
    "properties": {
    "收容所編號":"SA105-1012\n",
    "名稱":"民族國小",
    "鄉鎮":"松山區",
    "震災":"備用",
    "容納人數":40,
    "地址":"臺北市松山區精忠里民生東路四段97巷7號"
    }
  },
  {
    "type": "Feature",
    "geometry": {
       "type": "Point",
       "coordinates":  [ 121.4930584,25.0311567 ]
    },
    "properties": {
    "收容所編號":"SA105-1013\n",
    "名稱":"西松高中",
    "鄉鎮":"松山區",
    "震災":"備用",
    "容納人數":255,
    "地址":"臺北市松山區鵬程里健康路325巷7號"
    }
  },
  {
    "type": "Feature",
    "geometry": {
       "type": "Point",
       "coordinates":  [ 121.5127785,25.0634649 ]
    },
    "properties": {
    "收容所編號":"SA105-1014\n",
    "名稱":"西松國小",
    "鄉鎮":"松山區",
    "震災":"備用",
    "容納人數":47,
    "地址":"臺北市松山區東光里三民路5號"
    }
  },
  {
    "type": "Feature",
    "geometry": {
       "type": "Point",
       "coordinates":  [ 121.5167915,25.073414 ]
    },
    "properties": {
    "收容所編號":"SA105-1015\n",
    "名稱":"松山國小",
    "鄉鎮":"松山區",
    "震災":"備用",
    "容納人數":95,
    "地址":"臺北市松山區慈祐里八德路四段746號"
    }
  },
  {
    "type": "Feature",
    "geometry": {
       "type": "Point",
       "coordinates":  [ 121.5380342,25.0491977 ]
    },
    "properties": {
    "收容所編號":"SA105-1016\n",
    "名稱":"健康國小",
    "鄉鎮":"松山區",
    "震災":"備用",
    "容納人數":150,
    "地址":"臺北市松山區自強里延壽街168號"
    }
  },
  {
    "type": "Feature",
    "geometry": {
       "type": "Point",
       "coordinates":  [ 121.5336551,25.0643857 ]
    },
    "properties": {
    "收容所編號":"SA105-1017\n",
    "名稱":"敦化國小",
    "鄉鎮":"松山區",
    "震災":"備用",
    "容納人數":56,
    "地址":"臺北市松山區中正里敦化北路2號"
    }
  },
  {
    "type": "Feature",
    "geometry": {
       "type": "Point",
       "coordinates":  [ 121.5269643,25.0636402 ]
    },
    "properties": {
    "收容所編號":"SA105-1018\n",
    "名稱":"民權國小",
    "鄉鎮":"松山區",
    "震災":"是",
    "容納人數":80,
    "地址":"臺北市松山區三民里民權東路四段200號"
    }
  },
  {
    "type": "Feature",
    "geometry": {
       "type": "Point",
       "coordinates":  [ 121.54553,25.0606724 ]
    },
    "properties": {
    "收容所編號":"SA106-0001\n",
    "名稱":"民族實中",
    "鄉鎮":"大安區",
    "震災":"備用",
    "容納人數":139,
    "地址":"臺北市大安區學府里羅斯福路四段113巷13號"
    }
  },
  {
    "type": "Feature",
    "geometry": {
       "type": "Point",
       "coordinates":  [ 121.5169595,25.1054651 ]
    },
    "properties": {
    "收容所編號":"SA106-0002\n",
    "名稱":"大安國小",
    "鄉鎮":"大安區",
    "震災":"備用",
    "容納人數":152,
    "地址":"臺北市大安區芳和里臥龍街129號"
    }
  },
  {
    "type": "Feature",
    "geometry": {
       "type": "Point",
       "coordinates":  [ 121.5400652,25.0504675 ]
    },
    "properties": {
    "收容所編號":"SA106-0003\n",
    "名稱":"龍門國中",
    "鄉鎮":"大安區",
    "震災":"是",
    "容納人數":319,
    "地址":"臺北市大安區龍門里建國南路二段269號"
    }
  },
  {
    "type": "Feature",
    "geometry": {
       "type": "Point",
       "coordinates":  [ 121.5220569,25.0323216 ]
    },
    "properties": {
    "收容所編號":"SA106-0004\n",
    "名稱":"幸安國小",
    "鄉鎮":"大安區",
    "震災":"是",
    "容納人數":183,
    "地址":"臺北市大安區民炤里仁愛路3段22號"
    }
  },
  {
    "type": "Feature",
    "geometry": {
       "type": "Point",
       "coordinates":  [ 121.5611724,25.0494093 ]
    },
    "properties": {
    "收容所編號":"SA106-0005\n",
    "名稱":"大安森林公園",
    "鄉鎮":"大安區",
    "震災":"是",
    "容納人數":37949,
    "地址":"臺北市大安區龍門里新生南路以東、信義路三段以南"
    }
  },
  {
    "type": "Feature",
    "geometry": {
       "type": "Point",
       "coordinates":  [ 121.5422023,25.0641393 ]
    },
    "properties": {
    "收容所編號":"SA106-0006\n",
    "名稱":"臺北市大安運動中心",
    "鄉鎮":"大安區",
    "震災":"備用",
    "容納人數":389,
    "地址":"臺北市大安區臥龍里辛亥路三段55號"
    }
  },
  {
    "type": "Feature",
    "geometry": {
       "type": "Point",
       "coordinates":  [ 121.5508263,25.0359343 ]
    },
    "properties": {
    "收容所編號":"SA106-0007\n",
    "名稱":"大安高工",
    "鄉鎮":"大安區",
    "震災":"備用",
    "容納人數":100,
    "地址":"臺北市大安區龍圖里復興南路2段52號"
    }
  },
  {
    "type": "Feature",
    "geometry": {
       "type": "Point",
       "coordinates":  [ 121.5506276,25.0374966 ]
    },
    "properties": {
    "收容所編號":"SA106-0008\n",
    "名稱":"大安國中",
    "鄉鎮":"大安區",
    "震災":"備用",
    "容納人數":274,
    "地址":"臺北市大安區龍雲里大安路二段63號"
    }
  },
  {
    "type": "Feature",
    "geometry": {
       "type": "Point",
       "coordinates":  [ 121.55649,25.0566865 ]
    },
    "properties": {
    "收容所編號":"SA106-0009\n",
    "名稱":"仁愛國小",
    "鄉鎮":"大安區",
    "震災":"備用",
    "容納人數":350,
    "地址":"臺北市大安區敦安里安和路一段60號"
    }
  },
  {
    "type": "Feature",
    "geometry": {
       "type": "Point",
       "coordinates":  [ 121.575484,25.0798452 ]
    },
    "properties": {
    "收容所編號":"SA106-0010\n",
    "名稱":"仁愛國中",
    "鄉鎮":"大安區",
    "震災":"備用",
    "容納人數":125,
    "地址":"臺北市大安區敦安里仁愛路四段130號"
    }
  },
  {
    "type": "Feature",
    "geometry": {
       "type": "Point",
       "coordinates":  [ 121.5866225,25.0784037 ]
    },
    "properties": {
    "收容所編號":"SA106-0011\n",
    "名稱":"公館國小",
    "鄉鎮":"大安區",
    "震災":"備用",
    "容納人數":50,
    "地址":"臺北市大安區學府里基隆路四段41巷68弄2號"
    }
  },
  {
    "type": "Feature",
    "geometry": {
       "type": "Point",
       "coordinates":  [ 121.5889951,25.0693633 ]
    },
    "properties": {
    "收容所編號":"SA106-0012\n",
    "名稱":"古亭國小",
    "鄉鎮":"大安區",
    "震災":"備用",
    "容納人數":200,
    "地址":"臺北市大安區古風里羅斯福路三段201號"
    }
  },
  {
    "type": "Feature",
    "geometry": {
       "type": "Point",
       "coordinates":  [ 121.5811372,25.0801139 ]
    },
    "properties": {
    "收容所編號":"SA106-0013\n",
    "名稱":"和平高中",
    "鄉鎮":"大安區",
    "震災":"備用",
    "容納人數":300,
    "地址":"臺北市大安區芳和里臥龍街100號"
    }
  },
  {
    "type": "Feature",
    "geometry": {
       "type": "Point",
       "coordinates":  [ 121.5895961,25.0779429 ]
    },
    "properties": {
    "收容所編號":"SA106-0014\n",
    "名稱":"芳和實中",
    "鄉鎮":"大安區",
    "震災":"備用",
    "容納人數":50,
    "地址":"臺北市大安區芳和里臥龍街170號"
    }
  },
  {
    "type": "Feature",
    "geometry": {
       "type": "Point",
       "coordinates":  [ 121.5428766,25.0124117 ]
    },
    "properties": {
    "收容所編號":"SA106-0015\n",
    "名稱":"金華國小",
    "鄉鎮":"大安區",
    "震災":"備用",
    "容納人數":84,
    "地址":"臺北市大安區永康里愛國東路79巷11號"
    }
  },
  {
    "type": "Feature",
    "geometry": {
       "type": "Point",
       "coordinates":  [ 121.5275331,25.1197914 ]
    },
    "properties": {
    "收容所編號":"SA106-0016\n",
    "名稱":"金華國中",
    "鄉鎮":"大安區",
    "震災":"備用",
    "容納人數":300,
    "地址":"臺北市大安區福住里新生南路二段32號"
    }
  },
  {
    "type": "Feature",
    "geometry": {
       "type": "Point",
       "coordinates":  [ 121.5387398,25.1173064 ]
    },
    "properties": {
    "收容所編號":"SA106-0017\n",
    "名稱":"建安國小",
    "鄉鎮":"大安區",
    "震災":"備用",
    "容納人數":30,
    "地址":"臺北市大安區龍雲里大安路二段99號"
    }
  },
  {
    "type": "Feature",
    "geometry": {
       "type": "Point",
       "coordinates":  [ 121.532986,25.1132352 ]
    },
    "properties": {
    "收容所編號":"SA106-0018\n",
    "名稱":"新生國小",
    "鄉鎮":"大安區",
    "震災":"備用",
    "容納人數":414,
    "地址":"臺北市大安區龍安里新生南路二段36號"
    }
  },
  {
    "type": "Feature",
    "geometry": {
       "type": "Point",
       "coordinates":  [ 121.512377,25.0614777 ]
    },
    "properties": {
    "收容所編號":"SA106-0019\n",
    "名稱":"銘傳國小",
    "鄉鎮":"大安區",
    "震災":"備用",
    "容納人數":161,
    "地址":"臺北市大安區學府里羅斯褔路四段21號"
    }
  },
  {
    "type": "Feature",
    "geometry": {
       "type": "Point",
       "coordinates":  [ 121.4963602,25.1374091 ]
    },
    "properties": {
    "收容所編號":"SA106-0020\n",
    "名稱":"龍安國小",
    "鄉鎮":"大安區",
    "震災":"備用",
    "容納人數":31,
    "地址":"臺北市大安區龍門里新生南路三段33號"
    }
  },
  {
    "type": "Feature",
    "geometry": {
       "type": "Point",
       "coordinates":  [ 121.5213883,25.0995584 ]
    },
    "properties": {
    "收容所編號":"SA106-0021\n",
    "名稱":"懷生國中",
    "鄉鎮":"大安區",
    "震災":"備用",
    "容納人數":167,
    "地址":"臺北市大安區義村里忠孝東路三段248巷30號"
    }
  },
  {
    "type": "Feature",
    "geometry": {
       "type": "Point",
       "coordinates":  [ 121.5147513,25.1059122 ]
    },
    "properties": {
    "收容所編號":"SA108-0001\n",
    "名稱":"龍山國中",
    "鄉鎮":"萬華區",
    "震災":"備用",
    "容納人數":265,
    "地址":"臺北市萬華區富福里南寧路46號"
    }
  },
  {
    "type": "Feature",
    "geometry": {
       "type": "Point",
       "coordinates":  [ 121.560085,25.085741 ]
    },
    "properties": {
    "收容所編號":"SA108-0002\n",
    "名稱":"雙園國小",
    "鄉鎮":"萬華區",
    "震災":"備用",
    "容納人數":123,
    "地址":"臺北市萬華區雙園里莒光路315號"
    }
  },
  {
    "type": "Feature",
    "geometry": {
       "type": "Point",
       "coordinates":  [ 121.5171951,25.0542099 ]
    },
    "properties": {
    "收容所編號":"SA108-0003\n",
    "名稱":"新和國小",
    "鄉鎮":"萬華區",
    "震災":"是",
    "容納人數":79,
    "地址":"臺北市萬華區新安里西藏路125巷31號"
    }
  },
  {
    "type": "Feature",
    "geometry": {
       "type": "Point",
       "coordinates":  [ 121.571785,24.9966074 ]
    },
    "properties": {
    "收容所編號":"SA108-0004\n",
    "名稱":"青年公園",
    "鄉鎮":"萬華區",
    "震災":"是",
    "容納人數":31449,
    "地址":"臺北市萬華區騰雲里水源路199號"
    }
  },
  {
    "type": "Feature",
    "geometry": {
       "type": "Point",
       "coordinates":  [ 121.5700674,24.9902241 ]
    },
    "properties": {
    "收容所編號":"SA108-0005\n",
    "名稱":"臺北市萬華運動中心",
    "鄉鎮":"萬華區",
    "震災":"備用",
    "容納人數":226,
    "地址":"臺北市萬華區福星里西寧南路6之1號"
    }
  },
  {
    "type": "Feature",
    "geometry": {
       "type": "Point",
       "coordinates":  [ 121.5676434,24.9874125 ]
    },
    "properties": {
    "收容所編號":"SA108-0006\n",
    "名稱":"青年公園棒球場",
    "鄉鎮":"萬華區",
    "震災":"備用",
    "容納人數":60,
    "地址":"臺北市萬華區騰雲里台北市萬華區水源路199號"
    }
  },
  {
    "type": "Feature",
    "geometry": {
       "type": "Point",
       "coordinates":  [ 121.5128995,25.038563 ]
    },
    "properties": {
    "收容所編號":"SA108-0007\n",
    "名稱":"大理高中",
    "鄉鎮":"萬華區",
    "震災":"備用",
    "容納人數":300,
    "地址":"臺北市萬華區綠堤里長順街２號"
    }
  },
  {
    "type": "Feature",
    "geometry": {
       "type": "Point",
       "coordinates":  [ 121.5418173,25.0782517 ]
    },
    "properties": {
    "收容所編號":"SA108-0008\n",
    "名稱":"大理國小",
    "鄉鎮":"萬華區",
    "震災":"備用",
    "容納人數":80,
    "地址":"臺北市萬華區綠堤里艋舺大道389號"
    }
  },
  {
    "type": "Feature",
    "geometry": {
       "type": "Point",
       "coordinates":  [ 121.5029288,25.1323774 ]
    },
    "properties": {
    "收容所編號":"SA108-0009\n",
    "名稱":"老松國小",
    "鄉鎮":"萬華區",
    "震災":"備用",
    "容納人數":231,
    "地址":"臺北市萬華區福音里桂林路64號"
    }
  },
  {
    "type": "Feature",
    "geometry": {
       "type": "Point",
       "coordinates":  [ 121.499691,25.134251 ]
    },
    "properties": {
    "收容所編號":"SA108-0010\n",
    "名稱":"西門國小",
    "鄉鎮":"萬華區",
    "震災":"備用",
    "容納人數":149,
    "地址":"臺北市萬華區西門里成都路98號"
    }
  },
  {
    "type": "Feature",
    "geometry": {
       "type": "Point",
       "coordinates":  [ 121.5046099,25.134939 ]
    },
    "properties": {
    "收容所編號":"SA108-0011\n",
    "名稱":"西園國小",
    "鄉鎮":"萬華區",
    "震災":"備用",
    "容納人數":203,
    "地址":"臺北市萬華區日善里東園街73巷65號"
    }
  },
  {
    "type": "Feature",
    "geometry": {
       "type": "Point",
       "coordinates":  [ 121.5791061,24.9847679 ]
    },
    "properties": {
    "收容所編號":"SA108-0012\n",
    "名稱":"華江高中",
    "鄉鎮":"萬華區",
    "震災":"備用",
    "容納人數":300,
    "地址":"臺北市萬華區日善里西藏路213號"
    }
  },
  {
    "type": "Feature",
    "geometry": {
       "type": "Point",
       "coordinates":  [ 121.5289138,25.0207484 ]
    },
    "properties": {
    "收容所編號":"SA108-0013\n",
    "名稱":"華江國小",
    "鄉鎮":"萬華區",
    "震災":"備用",
    "容納人數":107,
    "地址":"臺北市萬華區華江里環河南路二段250巷42弄2號"
    }
  },
  {
    "type": "Feature",
    "geometry": {
       "type": "Point",
       "coordinates":  [ 121.5104141,25.024302 ]
    },
    "properties": {
    "收容所編號":"SA108-0014\n",
    "名稱":"萬大國小",
    "鄉鎮":"萬華區",
    "震災":"備用",
    "容納人數":60,
    "地址":"臺北市萬華區全德里萬大路346號"
    }
  },
  {
    "type": "Feature",
    "geometry": {
       "type": "Point",
       "coordinates":  [ 121.5759912,25.1289202 ]
    },
    "properties": {
    "收容所編號":"SA108-0015\n",
    "名稱":"萬華國中",
    "鄉鎮":"萬華區",
    "震災":"備用",
    "容納人數":50,
    "地址":"臺北市萬華區日善里西藏路201號"
    }
  },
  {
    "type": "Feature",
    "geometry": {
       "type": "Point",
       "coordinates":  [ 121.552521,25.0558398 ]
    },
    "properties": {
    "收容所編號":"SA108-0016\n",
    "名稱":"福星國小",
    "鄉鎮":"萬華區",
    "震災":"備用",
    "容納人數":50,
    "地址":"臺北市萬華區福星里中華路一段66號"
    }
  },
  {
    "type": "Feature",
    "geometry": {
       "type": "Point",
       "coordinates":  [ 121.5515398,25.0591373 ]
    },
    "properties": {
    "收容所編號":"SA108-0017\n",
    "名稱":"龍山國小",
    "鄉鎮":"萬華區",
    "震災":"備用",
    "容納人數":150,
    "地址":"臺北市萬華區青山里和平西路三段235號"
    }
  },
  {
    "type": "Feature",
    "geometry": {
       "type": "Point",
       "coordinates":  [ 121.5379829,25.0111067 ]
    },
    "properties": {
    "收容所編號":"SA108-0018\n",
    "名稱":"雙園國中",
    "鄉鎮":"萬華區",
    "震災":"備用",
    "容納人數":210,
    "地址":"臺北市萬華區和德里興義街二號"
    }
  },
  {
    "type": "Feature",
    "geometry": {
       "type": "Point",
       "coordinates":  [ 121.5138725,25.0636883 ]
    },
    "properties": {
    "收容所編號":"SA110-0001\n",
    "名稱":"博愛國小",
    "鄉鎮":"信義區",
    "震災":"是",
    "容納人數":156,
    "地址":"臺北市信義區安康里松仁路95巷20號"
    }
  },
  {
    "type": "Feature",
    "geometry": {
       "type": "Point",
       "coordinates":  [ 121.5741587,25.0483336 ]
    },
    "properties": {
    "收容所編號":"SA110-0002\n",
    "名稱":"吳興國小",
    "鄉鎮":"信義區",
    "震災":"備用",
    "容納人數":141,
    "地址":"臺北市信義區三張里松仁路226號"
    }
  },
  {
    "type": "Feature",
    "geometry": {
       "type": "Point",
       "coordinates":  [ 121.5497559,25.0794471 ]
    },
    "properties": {
    "收容所編號":"SA110-0003\n",
    "名稱":"信義國中",
    "鄉鎮":"信義區",
    "震災":"備用",
    "容納人數":206,
    "地址":"臺北市信義區三張里松仁路158巷1號"
    }
  },
  {
    "type": "Feature",
    "geometry": {
       "type": "Point",
       "coordinates":  [ 121.5558752,24.9890254 ]
    },
    "properties": {
    "收容所編號":"SA110-0004\n",
    "名稱":"興雅國中",
    "鄉鎮":"信義區",
    "震災":"是",
    "容納人數":251,
    "地址":"臺北市信義區安康里松德路168巷15號"
    }
  },
  {
    "type": "Feature",
    "geometry": {
       "type": "Point",
       "coordinates":  [ 121.5784955,25.0328352 ]
    },
    "properties": {
    "收容所編號":"SA110-0005\n",
    "名稱":"信義國小",
    "鄉鎮":"信義區",
    "震災":"備用",
    "容納人數":164,
    "地址":"臺北市信義區景新里松勤街60號"
    }
  },
  {
    "type": "Feature",
    "geometry": {
       "type": "Point",
       "coordinates":  [ 121.5102803,25.0612663 ]
    },
    "properties": {
    "收容所編號":"SA110-0006\n",
    "名稱":"松德公園",
    "鄉鎮":"信義區",
    "震災":"是",
    "容納人數":1340,
    "地址":"臺北市信義區安康里松德路180巷興雅國中東側"
    }
  },
  {
    "type": "Feature",
    "geometry": {
       "type": "Point",
       "coordinates":  [ 121.5935424,25.0537916 ]
    },
    "properties": {
    "收容所編號":"SA110-0007\n",
    "名稱":"臺北市信義運動中心",
    "鄉鎮":"信義區",
    "震災":"備用",
    "容納人數":200,
    "地址":"臺北市信義區三張里松勤路100號"
    }
  },
  {
    "type": "Feature",
    "geometry": {
       "type": "Point",
       "coordinates":  [ 121.5124217,25.1153828 ]
    },
    "properties": {
    "收容所編號":"SA110-0008\n",
    "名稱":"三興國小",
    "鄉鎮":"信義區",
    "震災":"備用",
    "容納人數":77,
    "地址":"臺北市信義區景聯里基隆路2段99號"
    }
  },
  {
    "type": "Feature",
    "geometry": {
       "type": "Point",
       "coordinates":  [ 121.5138046,25.1155187 ]
    },
    "properties": {
    "收容所編號":"SA110-0009\n",
    "名稱":"雙永國小(南校區)",
    "鄉鎮":"信義區",
    "震災":"備用",
    "容納人數":116,
    "地址":"臺北市信義區永春里松山路287巷5號"
    }
  },
  {
    "type": "Feature",
    "geometry": {
       "type": "Point",
       "coordinates":  [ 121.505032,25.119493 ]
    },
    "properties": {
    "收容所編號":"SA110-0010\n",
    "名稱":"永吉國中",
    "鄉鎮":"信義區",
    "震災":"備用",
    "容納人數":97,
    "地址":"臺北市信義區四育里松隆路161號"
    }
  },
  {
    "type": "Feature",
    "geometry": {
       "type": "Point",
       "coordinates":  [ 121.5578604,25.0400876 ]
    },
    "properties": {
    "收容所編號":"SA110-0011\n",
    "名稱":"永春高中",
    "鄉鎮":"信義區",
    "震災":"備用",
    "容納人數":300,
    "地址":"臺北市信義區松隆里松山路654號"
    }
  },
  {
    "type": "Feature",
    "geometry": {
       "type": "Point",
       "coordinates":  [ 121.5295754,25.0547308 ]
    },
    "properties": {
    "收容所編號":"SA110-0012\n",
    "名稱":"雙永國小(北校區)",
    "鄉鎮":"信義區",
    "震災":"備用",
    "容納人數":115,
    "地址":"臺北市信義區永春里松山路225巷48號"
    }
  },
  {
    "type": "Feature",
    "geometry": {
       "type": "Point",
       "coordinates":  [ 121.5235553,25.0423288 ]
    },
    "properties": {
    "收容所編號":"SA110-0013\n",
    "名稱":"光復國小",
    "鄉鎮":"信義區",
    "震災":"備用",
    "容納人數":80,
    "地址":"臺北市信義區興隆里光復南路271號"
    }
  },
  {
    "type": "Feature",
    "geometry": {
       "type": "Point",
       "coordinates":  [ 121.5190803,25.0610825 ]
    },
    "properties": {
    "收容所編號":"SA110-0014\n",
    "名稱":"松山工農",
    "鄉鎮":"信義區",
    "震災":"備用",
    "容納人數":333,
    "地址":"臺北市信義區廣居里忠孝東路五段236巷15號"
    }
  },
  {
    "type": "Feature",
    "geometry": {
       "type": "Point",
       "coordinates":  [ 121.5883263,25.0444585 ]
    },
    "properties": {
    "收容所編號":"SA110-0015\n",
    "名稱":"松山家商",
    "鄉鎮":"信義區",
    "震災":"備用",
    "容納人數":116,
    "地址":"臺北市信義區松隆里松山路655號"
    }
  },
  {
    "type": "Feature",
    "geometry": {
       "type": "Point",
       "coordinates":  [ 121.5232914,25.0861847 ]
    },
    "properties": {
    "收容所編號":"SA110-0016\n",
    "名稱":"松山高中",
    "鄉鎮":"信義區",
    "震災":"備用",
    "容納人數":300,
    "地址":"臺北市信義區新仁里基隆路一段156號"
    }
  },
  {
    "type": "Feature",
    "geometry": {
       "type": "Point",
       "coordinates":  [ 121.5178692,25.086145 ]
    },
    "properties": {
    "收容所編號":"SA110-0017\n",
    "名稱":"瑠公國中",
    "鄉鎮":"信義區",
    "震災":"備用",
    "容納人數":30,
    "地址":"臺北市信義區中行里福德街221巷15號"
    }
  },
  {
    "type": "Feature",
    "geometry": {
       "type": "Point",
       "coordinates":  [ 121.502562,25.0377541 ]
    },
    "properties": {
    "收容所編號":"SA110-0018\n",
    "名稱":"福德國小",
    "鄉鎮":"信義區",
    "震災":"備用",
    "容納人數":105,
    "地址":"臺北市信義區中行里福德街253號"
    }
  },
  {
    "type": "Feature",
    "geometry": {
       "type": "Point",
       "coordinates":  [ 121.5556668,25.103717 ]
    },
    "properties": {
    "收容所編號":"SA110-0019\n",
    "名稱":"興雅國小",
    "鄉鎮":"信義區",
    "震災":"備用",
    "容納人數":198,
    "地址":"臺北市信義區雅祥里基隆路一段83巷9號"
    }
  },
  {
    "type": "Feature",
    "geometry": {
       "type": "Point",
       "coordinates":  [ 121.566347,25.055357 ]
    },
    "properties": {
    "收容所編號":"SA110-0021\n",
    "名稱":"景勤1號公園",
    "鄉鎮":"信義區",
    "震災":"是",
    "容納人數":942,
    "地址":"臺北市信義區景勤里吳興街220巷59弄旁(陸軍保養廠)"
    }
  },
  {
    "type": "Feature",
    "geometry": {
       "type": "Point",
       "coordinates":  [ 121.5635135,25.0523589 ]
    },
    "properties": {
    "收容所編號":"SA110-0022\n",
    "名稱":"景勤2號公園",
    "鄉鎮":"信義區",
    "震災":"是",
    "容納人數":1023,
    "地址":"臺北市信義區景勤里信安街、吳興街220巷交口"
    }
  },
  {
    "type": "Feature",
    "geometry": {
       "type": "Point",
       "coordinates":  [ 121.5039673,25.0425847 ]
    },
    "properties": {
    "收容所編號":"SA111-0001\n",
    "名稱":"社子國小",
    "鄉鎮":"士林區",
    "震災":"備用",
    "容納人數":160,
    "地址":"臺北市士林區永倫里延平北路六段308號"
    }
  },
  {
    "type": "Feature",
    "geometry": {
       "type": "Point",
       "coordinates":  [ 121.565743,25.0838297 ]
    },
    "properties": {
    "收容所編號":"SA111-0002\n",
    "名稱":"至善國中",
    "鄉鎮":"士林區",
    "震災":"備用",
    "容納人數":157,
    "地址":"臺北市士林區臨溪里至善路二段360號"
    }
  },
  {
    "type": "Feature",
    "geometry": {
       "type": "Point",
       "coordinates":  [ 121.5660775,25.0854592 ]
    },
    "properties": {
    "收容所編號":"SA111-0003\n",
    "名稱":"福林國小",
    "鄉鎮":"士林區",
    "震災":"是",
    "容納人數":168,
    "地址":"臺北市士林區福志里福志路75號"
    }
  },
  {
    "type": "Feature",
    "geometry": {
       "type": "Point",
       "coordinates":  [ 121.4989116,25.0268778 ]
    },
    "properties": {
    "收容所編號":"SA111-0004\n",
    "名稱":"士林國小",
    "鄉鎮":"士林區",
    "震災":"是",
    "容納人數":219,
    "地址":"臺北市士林區福德里大東路165號"
    }
  },
  {
    "type": "Feature",
    "geometry": {
       "type": "Point",
       "coordinates":  [ 121.5678611,25.025376 ]
    },
    "properties": {
    "收容所編號":"SA111-0005\n",
    "名稱":"陽明山國小",
    "鄉鎮":"士林區",
    "震災":"備用",
    "容納人數":50,
    "地址":"臺北市士林區新安里仰德大道三段61號"
    }
  },
  {
    "type": "Feature",
    "geometry": {
       "type": "Point",
       "coordinates":  [ 121.5388959,24.9986036 ]
    },
    "properties": {
    "收容所編號":"SA111-0006\n",
    "名稱":"溪山實小",
    "鄉鎮":"士林區",
    "震災":"備用",
    "容納人數":50,
    "地址":"臺北市士林區溪山里至善路三段199號"
    }
  },
  {
    "type": "Feature",
    "geometry": {
       "type": "Point",
       "coordinates":  [ 121.5591322,25.0064326 ]
    },
    "properties": {
    "收容所編號":"SA111-0007\n",
    "名稱":"士林官邸公園",
    "鄉鎮":"士林區",
    "震災":"是",
    "容納人數":1930,
    "地址":"臺北市士林區福林里福林路60號"
    }
  },
  {
    "type": "Feature",
    "geometry": {
       "type": "Point",
       "coordinates":  [ 121.5491873,25.01963 ]
    },
    "properties": {
    "收容所編號":"SA111-0009\n",
    "名稱":"臺北市士林運動中心",
    "鄉鎮":"士林區",
    "震災":"備用",
    "容納人數":171,
    "地址":"臺北市士林區福德里士商路1號"
    }
  },
  {
    "type": "Feature",
    "geometry": {
       "type": "Point",
       "coordinates":  [ 121.5125555,25.0665753 ]
    },
    "properties": {
    "收容所編號":"SA111-0010\n",
    "名稱":"天母棒球場",
    "鄉鎮":"士林區",
    "震災":"備用",
    "容納人數":150,
    "地址":"臺北市士林區三玉里忠誠路二段77號"
    }
  },
  {
    "type": "Feature",
    "geometry": {
       "type": "Point",
       "coordinates":  [ 121.5318709,25.0429237 ]
    },
    "properties": {
    "收容所編號":"SA111-0011\n",
    "名稱":"三玉國小",
    "鄉鎮":"士林區",
    "震災":"備用",
    "容納人數":159,
    "地址":"臺北市士林區三玉里天母東路116號"
    }
  },
  {
    "type": "Feature",
    "geometry": {
       "type": "Point",
       "coordinates":  [ 121.5631883,24.9845929 ]
    },
    "properties": {
    "收容所編號":"SA111-0012\n",
    "名稱":"士東國小",
    "鄉鎮":"士林區",
    "震災":"備用",
    "容納人數":275,
    "地址":"臺北市士林區蘭雅里中山北路六段392號"
    }
  },
  {
    "type": "Feature",
    "geometry": {
       "type": "Point",
       "coordinates":  [ 121.5062897,25.0296546 ]
    },
    "properties": {
    "收容所編號":"SA111-0013\n",
    "名稱":"士林高商",
    "鄉鎮":"士林區",
    "震災":"備用",
    "容納人數":54,
    "地址":"臺北市士林區後港里士商路150號"
    }
  },
  {
    "type": "Feature",
    "geometry": {
       "type": "Point",
       "coordinates":  [ 121.51946,25.0761284 ]
    },
    "properties": {
    "收容所編號":"SA111-0014\n",
    "名稱":"士林國中",
    "鄉鎮":"士林區",
    "震災":"備用",
    "容納人數":39,
    "地址":"臺北市士林區福德里中正路345號"
    }
  },
  {
    "type": "Feature",
    "geometry": {
       "type": "Point",
       "coordinates":  [ 121.6106693,25.0712217 ]
    },
    "properties": {
    "收容所編號":"SA111-0015\n",
    "名稱":"天母國小",
    "鄉鎮":"士林區",
    "震災":"備用",
    "容納人數":323,
    "地址":"臺北市士林區天玉里天玉街12號"
    }
  },
  {
    "type": "Feature",
    "geometry": {
       "type": "Point",
       "coordinates":  [ 121.6103034,25.0700482 ]
    },
    "properties": {
    "收容所編號":"SA111-0016\n",
    "名稱":"天母國中",
    "鄉鎮":"士林區",
    "震災":"備用",
    "容納人數":99,
    "地址":"臺北市士林區三玉里天母東路120號"
    }
  },
  {
    "type": "Feature",
    "geometry": {
       "type": "Point",
       "coordinates":  [ 121.5627777,24.9873726 ]
    },
    "properties": {
    "收容所編號":"SA111-0017\n",
    "名稱":"文昌國小",
    "鄉鎮":"士林區",
    "震災":"備用",
    "容納人數":75,
    "地址":"臺北市士林區德華里文林路615巷20號"
    }
  },
  {
    "type": "Feature",
    "geometry": {
       "type": "Point",
       "coordinates":  [ 121.5221329,25.1120305 ]
    },
    "properties": {
    "收容所編號":"SA111-0018\n",
    "名稱":"平等國小",
    "鄉鎮":"士林區",
    "震災":"備用",
    "容納人數":30,
    "地址":"臺北市士林區平等里平菁街101號"
    }
  },
  {
    "type": "Feature",
    "geometry": {
       "type": "Point",
       "coordinates":  [ 121.5189795,25.1078343 ]
    },
    "properties": {
    "收容所編號":"SA111-0019\n",
    "名稱":"百齡高中",
    "鄉鎮":"士林區",
    "震災":"備用",
    "容納人數":300,
    "地址":"臺北市士林區義信里承德路四段177號"
    }
  },
  {
    "type": "Feature",
    "geometry": {
       "type": "Point",
       "coordinates":  [ 121.5217978,25.038556 ]
    },
    "properties": {
    "收容所編號":"SA111-0020\n",
    "名稱":"百齡國小",
    "鄉鎮":"士林區",
    "震災":"備用",
    "容納人數":342,
    "地址":"臺北市士林區福中里福港街205號"
    }
  },
  {
    "type": "Feature",
    "geometry": {
       "type": "Point",
       "coordinates":  [ 121.6160087,25.0690317 ]
    },
    "properties": {
    "收容所編號":"SA111-0021\n",
    "名稱":"芝山國小",
    "鄉鎮":"士林區",
    "震災":"備用",
    "容納人數":31,
    "地址":"臺北市士林區芝山里德行東路285號"
    }
  },
  {
    "type": "Feature",
    "geometry": {
       "type": "Point",
       "coordinates":  [ 121.6197274,25.0722972 ]
    },
    "properties": {
    "收容所編號":"SA111-0022\n",
    "名稱":"雨農國小",
    "鄉鎮":"士林區",
    "震災":"備用",
    "容納人數":124,
    "地址":"臺北市士林區名山里忠義街1號"
    }
  },
  {
    "type": "Feature",
    "geometry": {
       "type": "Point",
       "coordinates":  [ 121.6023132,25.055543 ]
    },
    "properties": {
    "收容所編號":"SA111-0023\n",
    "名稱":"雨聲國小",
    "鄉鎮":"士林區",
    "震災":"備用",
    "容納人數":30,
    "地址":"臺北市士林區岩山里至誠路一段62巷70號"
    }
  },
  {
    "type": "Feature",
    "geometry": {
       "type": "Point",
       "coordinates":  [ 121.5730081,25.0396961 ]
    },
    "properties": {
    "收容所編號":"SA111-0024\n",
    "名稱":"格致國中",
    "鄉鎮":"士林區",
    "震災":"備用",
    "容納人數":73,
    "地址":"臺北市士林區陽明里仰德大道四段75號"
    }
  },
  {
    "type": "Feature",
    "geometry": {
       "type": "Point",
       "coordinates":  [ 121.5805361,25.0350169 ]
    },
    "properties": {
    "收容所編號":"SA111-0025\n",
    "名稱":"富安國小",
    "鄉鎮":"士林區",
    "震災":"備用",
    "容納人數":71,
    "地址":"臺北市士林區富洲里延平北路八段135號"
    }
  },
  {
    "type": "Feature",
    "geometry": {
       "type": "Point",
       "coordinates":  [ 121.565387,25.0435047 ]
    },
    "properties": {
    "收容所編號":"SA111-0026\n",
    "名稱":"陽明高中",
    "鄉鎮":"士林區",
    "震災":"備用",
    "容納人數":110,
    "地址":"臺北市士林區後港里中正路510號"
    }
  },
  {
    "type": "Feature",
    "geometry": {
       "type": "Point",
       "coordinates":  [ 121.5782913,25.0503201 ]
    },
    "properties": {
    "收容所編號":"SA111-0027\n",
    "名稱":"葫蘆國小",
    "鄉鎮":"士林區",
    "震災":"備用",
    "容納人數":88,
    "地址":"臺北市士林區葫蘆里環河北路三段95號"
    }
  },
  {
    "type": "Feature",
    "geometry": {
       "type": "Point",
       "coordinates":  [ 121.5403948,25.0039185 ]
    },
    "properties": {
    "收容所編號":"SA111-0028\n",
    "名稱":"福安國中",
    "鄉鎮":"士林區",
    "震災":"備用",
    "容納人數":30,
    "地址":"臺北市士林區福安里延平北路七段250號"
    }
  },
  {
    "type": "Feature",
    "geometry": {
       "type": "Point",
       "coordinates":  [ 121.5223251,25.023202 ]
    },
    "properties": {
    "收容所編號":"SA111-0029\n",
    "名稱":"劍潭國小",
    "鄉鎮":"士林區",
    "震災":"備用",
    "容納人數":31,
    "地址":"臺北市士林區明勝里通河街16號"
    }
  },
  {
    "type": "Feature",
    "geometry": {
       "type": "Point",
       "coordinates":  [ 121.5020712,25.0904715 ]
    },
    "properties": {
    "收容所編號":"SA111-0030\n",
    "名稱":"雙溪國小",
    "鄉鎮":"士林區",
    "震災":"備用",
    "容納人數":30,
    "地址":"臺北市士林區翠山里中社路二段66號"
    }
  },
  {
    "type": "Feature",
    "geometry": {
       "type": "Point",
       "coordinates":  [ 121.6089662,25.0583526 ]
    },
    "properties": {
    "收容所編號":"SA111-0031\n",
    "名稱":"蘭雅國小",
    "鄉鎮":"士林區",
    "震災":"備用",
    "容納人數":30,
    "地址":"臺北市士林區蘭興里磺溪街57號"
    }
  },
  {
    "type": "Feature",
    "geometry": {
       "type": "Point",
       "coordinates":  [ 121.536354,25.1102978 ]
    },
    "properties": {
    "收容所編號":"SA111-0032\n",
    "名稱":"蘭雅國中",
    "鄉鎮":"士林區",
    "震災":"備用",
    "容納人數":130,
    "地址":"臺北市士林區三玉里忠誠路二段51號"
    }
  },
  {
    "type": "Feature",
    "geometry": {
       "type": "Point",
       "coordinates":  [ 121.5502711,25.0187502 ]
    },
    "properties": {
    "收容所編號":"SA111-0035\n",
    "名稱":"美崙公園",
    "鄉鎮":"士林區",
    "震災":"是",
    "容納人數":5233,
    "地址":"臺北市士林區福佳里美崙街152巷"
    }
  },
  {
    "type": "Feature",
    "geometry": {
       "type": "Point",
       "coordinates":  [ 121.5280125,25.0320401 ]
    },
    "properties": {
    "收容所編號":"SA111-0036\n",
    "名稱":"前港公園",
    "鄉鎮":"士林區",
    "震災":"是",
    "容納人數":3136,
    "地址":"臺北市士林區前港里華齡街與前港街交叉口(百齡國小對面)"
    }
  },
  {
    "type": "Feature",
    "geometry": {
       "type": "Point",
       "coordinates":  [ 121.53318,25.031202 ]
    },
    "properties": {
    "收容所編號":"SA111-0037\n",
    "名稱":"福林公園",
    "鄉鎮":"士林區",
    "震災":"是",
    "容納人數":2284,
    "地址":"臺北市士林區福林里福林路2號(中山北路與福林路交叉口)."
    }
  },
  {
    "type": "Feature",
    "geometry": {
       "type": "Point",
       "coordinates":  [ 121.5301871,25.0498163 ]
    },
    "properties": {
    "收容所編號":"SA111-0038\n",
    "名稱":"忠誠公園",
    "鄉鎮":"士林區",
    "震災":"是",
    "容納人數":881,
    "地址":"臺北市士林區名山里中山北路六段與忠誠路一段交叉口"
    }
  },
  {
    "type": "Feature",
    "geometry": {
       "type": "Point",
       "coordinates":  [ 121.5318545,25.0493929 ]
    },
    "properties": {
    "收容所編號":"SA111-0039\n",
    "名稱":"天和公園",
    "鄉鎮":"士林區",
    "震災":"是",
    "容納人數":1296,
    "地址":"臺北市士林區天和里天母東路69巷前"
    }
  },
  {
    "type": "Feature",
    "geometry": {
       "type": "Point",
       "coordinates":  [ 121.5338335,25.0558895 ]
    },
    "properties": {
    "收容所編號":"SA111-0040\n",
    "名稱":"社子公園",
    "鄉鎮":"士林區",
    "震災":"是",
    "容納人數":874,
    "地址":"臺北市士林區社園里永平街20巷11弄3號對面"
    }
  },
  {
    "type": "Feature",
    "geometry": {
       "type": "Point",
       "coordinates":  [ 121.5296853,25.1049797 ]
    },
    "properties": {
    "收容所編號":"SA112-0001\n",
    "名稱":"新民國中",
    "鄉鎮":"北投區",
    "震災":"是",
    "容納人數":205,
    "地址":"臺北市北投區林泉里新民路10號"
    }
  },
  {
    "type": "Feature",
    "geometry": {
       "type": "Point",
       "coordinates":  [ 121.5352647,25.1026617 ]
    },
    "properties": {
    "收容所編號":"SA112-0002\n",
    "名稱":"逸仙國小",
    "鄉鎮":"北投區",
    "震災":"是",
    "容納人數":166,
    "地址":"臺北市北投區中心里新民路2號"
    }
  },
  {
    "type": "Feature",
    "geometry": {
       "type": "Point",
       "coordinates":  [ 121.5070346,25.0223116 ]
    },
    "properties": {
    "收容所編號":"SA112-0003\n",
    "名稱":"桃源國中",
    "鄉鎮":"北投區",
    "震災":"備用",
    "容納人數":55,
    "地址":"臺北市北投區一德里中央北路四段48號"
    }
  },
  {
    "type": "Feature",
    "geometry": {
       "type": "Point",
       "coordinates":  [ 121.5630452,25.0309852 ]
    },
    "properties": {
    "收容所編號":"SA112-0004\n",
    "名稱":"北投國小",
    "鄉鎮":"北投區",
    "震災":"備用",
    "容納人數":195,
    "地址":"臺北市北投區長安里中央北路一段73號"
    }
  },
  {
    "type": "Feature",
    "geometry": {
       "type": "Point",
       "coordinates":  [ 121.5675836,25.0286896 ]
    },
    "properties": {
    "收容所編號":"SA112-0005\n",
    "名稱":"復興公園",
    "鄉鎮":"北投區",
    "震災":"是",
    "容納人數":3624,
    "地址":"臺北市北投區中心里中和街200號"
    }
  },
  {
    "type": "Feature",
    "geometry": {
       "type": "Point",
       "coordinates":  [ 121.5091203,25.0351764 ]
    },
    "properties": {
    "收容所編號":"SA112-0006\n",
    "名稱":"北投區民活動中心(已停用)",
    "鄉鎮":"北投區",
    "震災":"備用",
    "容納人數":90,
    "地址":"臺北市北投區清江里新市街30號6樓"
    }
  },
  {
    "type": "Feature",
    "geometry": {
       "type": "Point",
       "coordinates":  [ 121.5091203,25.0351764 ]
    },
    "properties": {
    "收容所編號":"SA112-0007\n",
    "名稱":"臺北市北投運動中心",
    "鄉鎮":"北投區",
    "震災":"備用",
    "容納人數":384,
    "地址":"臺北市北投區吉利里石牌路一段39巷100號"
    }
  },
  {
    "type": "Feature",
    "geometry": {
       "type": "Point",
       "coordinates":  [ 121.6072985,25.0564615 ]
    },
    "properties": {
    "收容所編號":"SA112-0008\n",
    "名稱":"大屯國小",
    "鄉鎮":"北投區",
    "震災":"備用",
    "容納人數":30,
    "地址":"臺北市北投區大屯里復興三路312號"
    }
  },
  {
    "type": "Feature",
    "geometry": {
       "type": "Point",
       "coordinates":  [ 121.5945009,25.0521777 ]
    },
    "properties": {
    "收容所編號":"SA112-0009\n",
    "名稱":"中正高中",
    "鄉鎮":"北投區",
    "震災":"備用",
    "容納人數":109,
    "地址":"臺北市北投區建民里文林北路77號"
    }
  },
  {
    "type": "Feature",
    "geometry": {
       "type": "Point",
       "coordinates":  [ 121.6108383,25.0574964 ]
    },
    "properties": {
    "收容所編號":"SA112-0010\n",
    "名稱":"文化國小",
    "鄉鎮":"北投區",
    "震災":"備用",
    "容納人數":50,
    "地址":"臺北市北投區文化里文化三路1號"
    }
  },
  {
    "type": "Feature",
    "geometry": {
       "type": "Point",
       "coordinates":  [ 121.6104853,25.0664602 ]
    },
    "properties": {
    "收容所編號":"SA112-0011\n",
    "名稱":"文林國小",
    "鄉鎮":"北投區",
    "震災":"備用",
    "容納人數":300,
    "地址":"臺北市北投區建民里文林北路155號"
    }
  },
  {
    "type": "Feature",
    "geometry": {
       "type": "Point",
       "coordinates":  [ 121.6106211,25.0679496 ]
    },
    "properties": {
    "收容所編號":"SA112-0012\n",
    "名稱":"北投國中",
    "鄉鎮":"北投區",
    "震災":"備用",
    "容納人數":48,
    "地址":"臺北市北投區溫泉里溫泉路62號"
    }
  },
  {
    "type": "Feature",
    "geometry": {
       "type": "Point",
       "coordinates":  [ 121.5473476,25.0293768 ]
    },
    "properties": {
    "收容所編號":"SA112-0013\n",
    "名稱":"石牌國小",
    "鄉鎮":"北投區",
    "震災":"備用",
    "容納人數":180,
    "地址":"臺北市北投區吉利里致遠二路80號"
    }
  },
  {
    "type": "Feature",
    "geometry": {
       "type": "Point",
       "coordinates":  [ 121.5124737,25.0301964 ]
    },
    "properties": {
    "收容所編號":"SA112-0014\n",
    "名稱":"石牌國中",
    "鄉鎮":"北投區",
    "震災":"備用",
    "容納人數":400,
    "地址":"臺北市北投區吉利里石牌路一段139號"
    }
  },
  {
    "type": "Feature",
    "geometry": {
       "type": "Point",
       "coordinates":  [ 121.5836353,24.9763942 ]
    },
    "properties": {
    "收容所編號":"SA112-0015\n",
    "名稱":"立農國小",
    "鄉鎮":"北投區",
    "震災":"備用",
    "容納人數":31,
    "地址":"臺北市北投區立農里立農街一段250號"
    }
  },
  {
    "type": "Feature",
    "geometry": {
       "type": "Point",
       "coordinates":  [ 121.5244264,25.1493002 ]
    },
    "properties": {
    "收容所編號":"SA112-0016\n",
    "名稱":"明德國小",
    "鄉鎮":"北投區",
    "震災":"備用",
    "容納人數":767,
    "地址":"臺北市北投區榮華里明德路190號"
    }
  },
  {
    "type": "Feature",
    "geometry": {
       "type": "Point",
       "coordinates":  [ 121.617435,25.0425192 ]
    },
    "properties": {
    "收容所編號":"SA112-0017\n",
    "名稱":"明德國中",
    "鄉鎮":"北投區",
    "震災":"備用",
    "容納人數":88,
    "地址":"臺北市北投區建民里明德路50號"
    }
  },
  {
    "type": "Feature",
    "geometry": {
       "type": "Point",
       "coordinates":  [ 121.518065,25.0760341 ]
    },
    "properties": {
    "收容所編號":"SA112-0018\n",
    "名稱":"泉源實小",
    "鄉鎮":"北投區",
    "震災":"備用",
    "容納人數":33,
    "地址":"臺北市北投區泉源里東昇路34號"
    }
  },
  {
    "type": "Feature",
    "geometry": {
       "type": "Point",
       "coordinates":  [ 121.5462327,25.1312832 ]
    },
    "properties": {
    "收容所編號":"SA112-0019\n",
    "名稱":"桃源國小",
    "鄉鎮":"北投區",
    "震災":"備用",
    "容納人數":30,
    "地址":"臺北市北投區桃源里中央北路三段40巷45號"
    }
  },
  {
    "type": "Feature",
    "geometry": {
       "type": "Point",
       "coordinates":  [ 121.4838217,25.139824 ]
    },
    "properties": {
    "收容所編號":"SA112-0020\n",
    "名稱":"清江國小",
    "鄉鎮":"北投區",
    "震災":"備用",
    "容納人數":175,
    "地址":"臺北市北投區奇岩里公館路220號"
    }
  },
  {
    "type": "Feature",
    "geometry": {
       "type": "Point",
       "coordinates":  [ 121.4773177,25.1347544 ]
    },
    "properties": {
    "收容所編號":"SA112-0021\n",
    "名稱":"復興高中",
    "鄉鎮":"北投區",
    "震災":"備用",
    "容納人數":348,
    "地址":"臺北市北投區開明里復興四路70號"
    }
  },
  {
    "type": "Feature",
    "geometry": {
       "type": "Point",
       "coordinates":  [ 121.5628669,25.0563853 ]
    },
    "properties": {
    "收容所編號":"SA112-0022\n",
    "名稱":"湖山國小",
    "鄉鎮":"北投區",
    "震災":"備用",
    "容納人數":30,
    "地址":"臺北市北投區湖山里湖底路11號"
    }
  },
  {
    "type": "Feature",
    "geometry": {
       "type": "Point",
       "coordinates":  [ 121.5110984,25.0303172 ]
    },
    "properties": {
    "收容所編號":"SA112-0023\n",
    "名稱":"湖田實小",
    "鄉鎮":"北投區",
    "震災":"備用",
    "容納人數":30,
    "地址":"臺北市北投區湖田里竹子湖路17之2號"
    }
  },
  {
    "type": "Feature",
    "geometry": {
       "type": "Point",
       "coordinates":  [ 121.50769,25.1268678 ]
    },
    "properties": {
    "收容所編號":"SA112-0024\n",
    "名稱":"義方國小",
    "鄉鎮":"北投區",
    "震災":"備用",
    "容納人數":120,
    "地址":"臺北市北投區泉源里珠海路155號"
    }
  },
  {
    "type": "Feature",
    "geometry": {
       "type": "Point",
       "coordinates":  [ 121.5757422,25.001798 ]
    },
    "properties": {
    "收容所編號":"SA112-0025\n",
    "名稱":"關渡國小",
    "鄉鎮":"北投區",
    "震災":"備用",
    "容納人數":110,
    "地址":"臺北市北投區一德里中央北路四段581號"
    }
  },
  {
    "type": "Feature",
    "geometry": {
       "type": "Point",
       "coordinates":  [ 121.4825723,25.1054642 ]
    },
    "properties": {
    "收容所編號":"SA112-0026\n",
    "名稱":"關渡國中",
    "鄉鎮":"北投區",
    "震災":"備用",
    "容納人數":120,
    "地址":"臺北市北投區關渡里知行路212號"
    }
  },
  {
    "type": "Feature",
    "geometry": {
       "type": "Point",
       "coordinates":  [ 121.5021158,25.14372 ]
    },
    "properties": {
    "收容所編號":"SA112-0027\n",
    "名稱":"復興崗營區",
    "鄉鎮":"北投區",
    "震災":"備用",
    "容納人數":584,
    "地址":"臺北市北投區文化里中央北路二段70號"
    }
  },
  {
    "type": "Feature",
    "geometry": {
       "type": "Point",
       "coordinates":  [ 121.4929536,25.1380965 ]
    },
    "properties": {
    "收容所編號":"SA112-0028\n",
    "名稱":"北投一公園",
    "鄉鎮":"北投區",
    "震災":"是",
    "容納人數":3461,
    "地址":"臺北市北投區中心、林泉、長安、溫泉里中山路、光明路所圍範圍"
    }
  },
  {
    "type": "Feature",
    "geometry": {
       "type": "Point",
       "coordinates":  [ 121.5485239,25.0491723 ]
    },
    "properties": {
    "收容所編號":"SA112-0029\n",
    "名稱":"北投二公園",
    "鄉鎮":"北投區",
    "震災":"是",
    "容納人數":1083,
    "地址":"臺北市北投區中心、林泉里中山路5號附近"
    }
  },
  {
    "type": "Feature",
    "geometry": {
       "type": "Point",
       "coordinates":  [ 121.5467051,25.0509665 ]
    },
    "properties": {
    "收容所編號":"SA112-0030\n",
    "名稱":"大豐公園",
    "鄉鎮":"北投區",
    "震災":"是",
    "容納人數":1075,
    "地址":"臺北市北投區清江、溫泉里公館路13號旁"
    }
  },
  {
    "type": "Feature",
    "geometry": {
       "type": "Point",
       "coordinates":  [ 121.5407676,24.9921264 ]
    },
    "properties": {
    "收容所編號":"SA112-0031",
    "名稱":"七星公園",
    "鄉鎮":"北投區",
    "震災":"是",
    "容納人數":1046,
    "地址":"臺北市北投區長安里光明路、中山路交叉口(新北投捷運站南側)"
    }
  },
  {
    "type": "Feature",
    "geometry": {
       "type": "Point",
       "coordinates":  [ 121.5560329,24.9807015 ]
    },
    "properties": {
    "收容所編號":"SA112-0032\n",
    "名稱":"石牌公園",
    "鄉鎮":"北投區",
    "震災":"是",
    "容納人數":2047,
    "地址":"臺北市北投區吉利、尊賢里臺北市北投區石牌路1段39巷內"
    }
  },
  {
    "type": "Feature",
    "geometry": {
       "type": "Point",
       "coordinates":  [ 121.5398994,24.9896433 ]
    },
    "properties": {
    "收容所編號":"SA112-0033\n",
    "名稱":"立農公園",
    "鄉鎮":"北投區",
    "震災":"是",
    "容納人數":1547,
    "地址":"臺北市北投區立農里承德路7段、立農街1段22巷2弄旁"
    }
  },
  {
    "type": "Feature",
    "geometry": {
       "type": "Point",
       "coordinates":  [ 121.5429376,24.993058 ]
    },
    "properties": {
    "收容所編號":"SA112-0034\n",
    "名稱":"振興公園",
    "鄉鎮":"北投區",
    "震災":"是",
    "容納人數":950,
    "地址":"臺北市北投區榮華里天母西路、磺溪交叉口"
    }
  },
  {
    "type": "Feature",
    "geometry": {
       "type": "Point",
       "coordinates":  [ 121.5368105,25.1468198 ]
    },
    "properties": {
    "收容所編號":"SA114-0001",
    "名稱":"麗山國小",
    "鄉鎮":"內湖區",
    "震災":"備用",
    "容納人數":184,
    "地址":"臺北市內湖區麗山里港華街100號"
    }
  },
  {
    "type": "Feature",
    "geometry": {
       "type": "Point",
       "coordinates":  [ 121.5399522,25.1683226 ]
    },
    "properties": {
    "收容所編號":"SA114-0002\n",
    "名稱":"碧湖國小",
    "鄉鎮":"內湖區",
    "震災":"備用",
    "容納人數":134,
    "地址":"臺北市內湖區內湖里金龍路100號"
    }
  },
  {
    "type": "Feature",
    "geometry": {
       "type": "Point",
       "coordinates":  [ 121.4965906,25.028032 ]
    },
    "properties": {
    "收容所編號":"SA114-0003",
    "名稱":"麗湖國小",
    "鄉鎮":"內湖區",
    "震災":"備用",
    "容納人數":257,
    "地址":"臺北市內湖區金湖里金湖路363巷8號"
    }
  },
  {
    "type": "Feature",
    "geometry": {
       "type": "Point",
       "coordinates":  [ 121.4911843,25.0338356 ]
    },
    "properties": {
    "收容所編號":"SA114-0004",
    "名稱":"大湖國小",
    "鄉鎮":"內湖區",
    "震災":"是",
    "容納人數":166,
    "地址":"臺北市內湖區大湖里大湖山莊街170號"
    }
  },
  {
    "type": "Feature",
    "geometry": {
       "type": "Point",
       "coordinates":  [ 121.5528027,25.1193337 ]
    },
    "properties": {
    "收容所編號":"SA114-0005\n",
    "名稱":"康寧國小",
    "鄉鎮":"內湖區",
    "震災":"是",
    "容納人數":157,
    "地址":"臺北市內湖區清白里星雲街121號"
    }
  },
  {
    "type": "Feature",
    "geometry": {
       "type": "Point",
       "coordinates":  [ 121.5166597,25.0929638 ]
    },
    "properties": {
    "收容所編號":"SA114-0006",
    "名稱":"大湖公園",
    "鄉鎮":"內湖區",
    "震災":"是",
    "容納人數":2437,
    "地址":"臺北市內湖區秀湖里成功路五段31號旁"
    }
  },
  {
    "type": "Feature",
    "geometry": {
       "type": "Point",
       "coordinates":  [ 121.528776,25.070256 ]
    },
    "properties": {
    "收容所編號":"SA114-0007",
    "名稱":"內湖區行政大樓",
    "鄉鎮":"內湖區",
    "震災":"備用",
    "容納人數":170,
    "地址":"臺北市內湖區湖興里民權東路6段99號8樓"
    }
  },
  {
    "type": "Feature",
    "geometry": {
       "type": "Point",
       "coordinates":  [ 121.5328812,25.0297555 ]
    },
    "properties": {
    "收容所編號":"SA114-0008\n",
    "名稱":"臺北市內湖運動中心",
    "鄉鎮":"內湖區",
    "震災":"備用",
    "容納人數":219,
    "地址":"臺北市內湖區港墘里洲子街12號"
    }
  },
  {
    "type": "Feature",
    "geometry": {
       "type": "Point",
       "coordinates":  [ 121.5888167,25.0682455 ]
    },
    "properties": {
    "收容所編號":"SA114-0009",
    "名稱":"內湖高中",
    "鄉鎮":"內湖區",
    "震災":"備用",
    "容納人數":110,
    "地址":"臺北市內湖區紫陽里文德路218號"
    }
  },
  {
    "type": "Feature",
    "geometry": {
       "type": "Point",
       "coordinates":  [ 121.5387091,24.9940883 ]
    },
    "properties": {
    "收容所編號":"SA114-0010\n",
    "名稱":"內湖國小",
    "鄉鎮":"內湖區",
    "震災":"備用",
    "容納人數":150,
    "地址":"臺北市內湖區港富里內湖路二段41號"
    }
  },
  {
    "type": "Feature",
    "geometry": {
       "type": "Point",
       "coordinates":  [ 121.5796101,25.1200245 ]
    },
    "properties": {
    "收容所編號":"SA114-0011",
    "名稱":"內湖高工",
    "鄉鎮":"內湖區",
    "震災":"備用",
    "容納人數":245,
    "地址":"臺北市內湖區港墘里內湖路一段520號"
    }
  },
  {
    "type": "Feature",
    "geometry": {
       "type": "Point",
       "coordinates":  [ 121.4988588,25.0239075 ]
    },
    "properties": {
    "收容所編號":"SA114-0012\n",
    "名稱":"明湖國中",
    "鄉鎮":"內湖區",
    "震災":"備用",
    "容納人數":251,
    "地址":"臺北市內湖區葫洲里康寧路三段60號"
    }
  },
  {
    "type": "Feature",
    "geometry": {
       "type": "Point",
       "coordinates":  [ 121.5589112,25.0006022 ]
    },
    "properties": {
    "收容所編號":"SA114-0013",
    "名稱":"三民國中",
    "鄉鎮":"內湖區",
    "震災":"備用",
    "容納人數":300,
    "地址":"臺北市內湖區湖興里民權東路六段45號"
    }
  },
  {
    "type": "Feature",
    "geometry": {
       "type": "Point",
       "coordinates":  [ 121.5684884,25.0021799 ]
    },
    "properties": {
    "收容所編號":"SA114-0014\n",
    "名稱":"東湖國中",
    "鄉鎮":"內湖區",
    "震災":"備用",
    "容納人數":138,
    "地址":"臺北市內湖區樂康里康樂街131號"
    }
  },
  {
    "type": "Feature",
    "geometry": {
       "type": "Point",
       "coordinates":  [ 121.567549,25.0010436 ]
    },
    "properties": {
    "收容所編號":"SA114-0015\n",
    "名稱":"東湖國小",
    "鄉鎮":"內湖區",
    "震災":"備用",
    "容納人數":155,
    "地址":"臺北市內湖區東湖里東湖路115號"
    }
  },
  {
    "type": "Feature",
    "geometry": {
       "type": "Point",
       "coordinates":  [ 121.49882,25.0292477 ]
    },
    "properties": {
    "收容所編號":"SA114-0016",
    "名稱":"文湖國小",
    "鄉鎮":"內湖區",
    "震災":"備用",
    "容納人數":54,
    "地址":"臺北市內湖區西康里文湖街15號"
    }
  },
  {
    "type": "Feature",
    "geometry": {
       "type": "Point",
       "coordinates":  [ 121.5366644,25.0005651 ]
    },
    "properties": {
    "收容所編號":"SA114-0017\n",
    "名稱":"西湖國小",
    "鄉鎮":"內湖區",
    "震災":"備用",
    "容納人數":76,
    "地址":"臺北市內湖區西湖里環山路一段25號"
    }
  },
  {
    "type": "Feature",
    "geometry": {
       "type": "Point",
       "coordinates":  [ 121.539361,25.000332 ]
    },
    "properties": {
    "收容所編號":"SA114-0018\n",
    "名稱":"西湖實中",
    "鄉鎮":"內湖區",
    "震災":"備用",
    "容納人數":106,
    "地址":"臺北市內湖區西湖里環山路一段27號"
    }
  },
  {
    "type": "Feature",
    "geometry": {
       "type": "Point",
       "coordinates":  [ 121.5768008,24.9887153 ]
    },
    "properties": {
    "收容所編號":"SA114-0019\n",
    "名稱":"內湖國中",
    "鄉鎮":"內湖區",
    "震災":"備用",
    "容納人數":267,
    "地址":"臺北市內湖區紫陽里陽光街1號"
    }
  },
  {
    "type": "Feature",
    "geometry": {
       "type": "Point",
       "coordinates":  [ 121.5763174,24.9899038 ]
    },
    "properties": {
    "收容所編號":"SA114-0020\n",
    "名稱":"明湖國小",
    "鄉鎮":"內湖區",
    "震災":"備用",
    "容納人數":137,
    "地址":"臺北市內湖區明湖里康寧路三段105號"
    }
  },
  {
    "type": "Feature",
    "geometry": {
       "type": "Point",
       "coordinates":  [ 121.5093048,25.1420469 ]
    },
    "properties": {
    "收容所編號":"SA114-0021\n",
    "名稱":"南湖高中",
    "鄉鎮":"內湖區",
    "震災":"備用",
    "容納人數":300,
    "地址":"臺北市內湖區南湖里康寧路三段220號"
    }
  },
  {
    "type": "Feature",
    "geometry": {
       "type": "Point",
       "coordinates":  [ 121.5071659,25.0841054 ]
    },
    "properties": {
    "收容所編號":"SA114-0022\n",
    "名稱":"南湖國小",
    "鄉鎮":"內湖區",
    "震災":"備用",
    "容納人數":50,
    "地址":"臺北市內湖區南湖里康寧路三段200號"
    }
  },
  {
    "type": "Feature",
    "geometry": {
       "type": "Point",
       "coordinates":  [ 121.6187981,25.0542606 ]
    },
    "properties": {
    "收容所編號":"SA114-0023\n",
    "名稱":"新湖國小",
    "鄉鎮":"內湖區",
    "震災":"備用",
    "容納人數":40,
    "地址":"臺北市內湖區湖興里民權東路六段138號"
    }
  },
  {
    "type": "Feature",
    "geometry": {
       "type": "Point",
       "coordinates":  [ 121.5580062,24.9835633 ]
    },
    "properties": {
    "收容所編號":"SA114-0024",
    "名稱":"潭美國小",
    "鄉鎮":"內湖區",
    "震災":"備用",
    "容納人數":81,
    "地址":"臺北市內湖區週美里行善路179號"
    }
  },
  {
    "type": "Feature",
    "geometry": {
       "type": "Point",
       "coordinates":  [ 121.5547619,24.9834247 ]
    },
    "properties": {
    "收容所編號":"SA114-0025",
    "名稱":"麗山高中",
    "鄉鎮":"內湖區",
    "震災":"備用",
    "容納人數":60,
    "地址":"臺北市內湖區港華里環山路二段100號"
    }
  },
  {
    "type": "Feature",
    "geometry": {
       "type": "Point",
       "coordinates":  [ 121.5860972,25.03703 ]
    },
    "properties": {
    "收容所編號":"SA114-0026",
    "名稱":"麗山國中",
    "鄉鎮":"內湖區",
    "震災":"備用",
    "容納人數":82,
    "地址":"臺北市內湖區港都里內湖路一段629巷42號"
    }
  },
  {
    "type": "Feature",
    "geometry": {
       "type": "Point",
       "coordinates":  [ 121.5914025,25.0841216 ]
    },
    "properties": {
    "收容所編號":"SA114-0027\n",
    "名稱":"碧湖公園",
    "鄉鎮":"內湖區",
    "震災":"是",
    "容納人數":552,
    "地址":"臺北市內湖區湖濱里內湖路二段175號,國立台灣戲曲學院旁."
    }
  },
  {
    "type": "Feature",
    "geometry": {
       "type": "Point",
       "coordinates":  [ 121.4878824,25.1032614 ]
    },
    "properties": {
    "收容所編號":"SA115-0001\n",
    "名稱":"舊莊國小",
    "鄉鎮":"南港區",
    "震災":"備用",
    "容納人數":92,
    "地址":"臺北市南港區舊莊里舊莊街一段100號"
    }
  },
  {
    "type": "Feature",
    "geometry": {
       "type": "Point",
       "coordinates":  [ 121.5086742,25.0469706 ]
    },
    "properties": {
    "收容所編號":"SA115-0002\n",
    "名稱":"育成高中",
    "鄉鎮":"南港區",
    "震災":"備用",
    "容納人數":318,
    "地址":"臺北市南港區南港里重陽路366號"
    }
  },
  {
    "type": "Feature",
    "geometry": {
       "type": "Point",
       "coordinates":  [ 121.5866322,25.0384781 ]
    },
    "properties": {
    "收容所編號":"SA115-0003\n",
    "名稱":"南港高中",
    "鄉鎮":"南港區",
    "震災":"備用",
    "容納人數":324,
    "地址":"臺北市南港區西新里向陽路21號"
    }
  },
  {
    "type": "Feature",
    "geometry": {
       "type": "Point",
       "coordinates":  [ 121.5215222,25.0893734 ]
    },
    "properties": {
    "收容所編號":"SA115-0004\n",
    "名稱":"成德國小",
    "鄉鎮":"南港區",
    "震災":"是",
    "容納人數":225,
    "地址":"臺北市南港區聯成里東新街65號"
    }
  },
  {
    "type": "Feature",
    "geometry": {
       "type": "Point",
       "coordinates":  [ 121.5161576,25.0648806 ]
    },
    "properties": {
    "收容所編號":"SA115-0005\n",
    "名稱":"成德國中",
    "鄉鎮":"南港區",
    "震災":"備用",
    "容納人數":92,
    "地址":"臺北市南港區成福里東新街108巷23號"
    }
  },
  {
    "type": "Feature",
    "geometry": {
       "type": "Point",
       "coordinates":  [ 121.5457293,25.0206263 ]
    },
    "properties": {
    "收容所編號":"SA115-0006\n",
    "名稱":"南港公園",
    "鄉鎮":"南港區",
    "震災":"是",
    "容納人數":8655,
    "地址":"臺北市南港區成福里東新街170-1號"
    }
  },
  {
    "type": "Feature",
    "geometry": {
       "type": "Point",
       "coordinates":  [ 121.5214518,25.0549545 ]
    },
    "properties": {
    "收容所編號":"SA115-0007\n",
    "名稱":"臺北市南港運動中心",
    "鄉鎮":"南港區",
    "震災":"備用",
    "容納人數":240,
    "地址":"臺北市南港區合成里玉成街69號"
    }
  },
  {
    "type": "Feature",
    "geometry": {
       "type": "Point",
       "coordinates":  [ 121.519456,25.0385054 ]
    },
    "properties": {
    "收容所編號":"SA115-0008\n",
    "名稱":"臺北市極限運動訓練中心",
    "鄉鎮":"南港區",
    "震災":"備用",
    "容納人數":50,
    "地址":"臺北市南港區中南里忠孝東路七段382號"
    }
  },
  {
    "type": "Feature",
    "geometry": {
       "type": "Point",
       "coordinates":  [ 121.5747702,25.0781572 ]
    },
    "properties": {
    "收容所編號":"SA115-0009\n",
    "名稱":"玉成國小",
    "鄉鎮":"南港區",
    "震災":"備用",
    "容納人數":30,
    "地址":"臺北市南港區西新里向陽路31號"
    }
  },
  {
    "type": "Feature",
    "geometry": {
       "type": "Point",
       "coordinates":  [ 121.5592325,24.9970954 ]
    },
    "properties": {
    "收容所編號":"SA115-0010\n",
    "名稱":"東新國小",
    "鄉鎮":"南港區",
    "震災":"備用",
    "容納人數":45,
    "地址":"臺北市南港區東新里興南街62號"
    }
  },
  {
    "type": "Feature",
    "geometry": {
       "type": "Point",
       "coordinates":  [ 121.5097619,25.1164732 ]
    },
    "properties": {
    "收容所編號":"SA115-0011\n",
    "名稱":"南港高工",
    "鄉鎮":"南港區",
    "震災":"備用",
    "容納人數":160,
    "地址":"臺北市南港區南港里興中路29號"
    }
  },
  {
    "type": "Feature",
    "geometry": {
       "type": "Point",
       "coordinates":  [ 121.5484798,25.0513338 ]
    },
    "properties": {
    "收容所編號":"SA115-0012\n",
    "名稱":"南港國小",
    "鄉鎮":"南港區",
    "震災":"備用",
    "容納人數":50,
    "地址":"臺北市南港區三重里惠民街67號"
    }
  },
  {
    "type": "Feature",
    "geometry": {
       "type": "Point",
       "coordinates":  [ 121.5720055,25.0409201 ]
    },
    "properties": {
    "收容所編號":"SA115-0013\n",
    "名稱":"胡適國小",
    "鄉鎮":"南港區",
    "震災":"備用",
    "容納人數":225,
    "地址":"臺北市南港區中研里舊莊街一段1號"
    }
  },
  {
    "type": "Feature",
    "geometry": {
       "type": "Point",
       "coordinates":  [ 121.5818617,25.0488415 ]
    },
    "properties": {
    "收容所編號":"SA115-0014\n",
    "名稱":"誠正國中",
    "鄉鎮":"南港區",
    "震災":"備用",
    "容納人數":143,
    "地址":"臺北市南港區新富里富康街1巷24號"
    }
  },
  {
    "type": "Feature",
    "geometry": {
       "type": "Point",
       "coordinates":  [ 121.6073838,25.0518712 ]
    },
    "properties": {
    "收容所編號":"SA115-0015\n",
    "名稱":"修德國小",
    "鄉鎮":"南港區",
    "震災":"是",
    "容納人數":95,
    "地址":"臺北市南港區成福里東新街118巷86號"
    }
  },
  {
    "type": "Feature",
    "geometry": {
       "type": "Point",
       "coordinates":  [ 121.5069298,25.0471243 ]
    },
    "properties": {
    "收容所編號":"SA115-0016\n",
    "名稱":"玉成公園",
    "鄉鎮":"南港區",
    "震災":"是",
    "容納人數":3523,
    "地址":"臺北市南港區鴻福里中坡南路55號."
    }
  },
  {
    "type": "Feature",
    "geometry": {
       "type": "Point",
       "coordinates":  [ 121.5492416,25.0494852 ]
    },
    "properties": {
    "收容所編號":"SA116-0001\n",
    "名稱":"景興國中",
    "鄉鎮":"文山區",
    "震災":"是",
    "容納人數":169,
    "地址":"臺北市文山區景華里景興路46巷2號"
    }
  },
  {
    "type": "Feature",
    "geometry": {
       "type": "Point",
       "coordinates":  [ 121.5508668,25.0513471 ]
    },
    "properties": {
    "收容所編號":"SA116-0002\n",
    "名稱":"萬興國小",
    "鄉鎮":"文山區",
    "震災":"備用",
    "容納人數":152,
    "地址":"臺北市文山區萬興里秀明路二段114號"
    }
  },
  {
    "type": "Feature",
    "geometry": {
       "type": "Point",
       "coordinates":  [ 121.535609,25.0140746 ]
    },
    "properties": {
    "收容所編號":"SA116-0003\n",
    "名稱":"景興國小",
    "鄉鎮":"文山區",
    "震災":"是",
    "容納人數":158,
    "地址":"臺北市文山區興安里景華街150巷21號"
    }
  },
  {
    "type": "Feature",
    "geometry": {
       "type": "Point",
       "coordinates":  [ 121.5230037,25.0799144 ]
    },
    "properties": {
    "收容所編號":"SA116-0004\n",
    "名稱":"景華公園",
    "鄉鎮":"文山區",
    "震災":"是",
    "容納人數":1347,
    "地址":"臺北市文山區景華里景興路與景華街交义口"
    }
  },
  {
    "type": "Feature",
    "geometry": {
       "type": "Point",
       "coordinates":  [ 121.556269,24.979926 ]
    },
    "properties": {
    "收容所編號":"SA116-0006\n",
    "名稱":"臺北市文山運動中心",
    "鄉鎮":"文山區",
    "震災":"備用",
    "容納人數":189,
    "地址":"臺北市文山區興得里興隆路三段222號"
    }
  },
  {
    "type": "Feature",
    "geometry": {
       "type": "Point",
       "coordinates":  [ 121.5673037,24.9824335 ]
    },
    "properties": {
    "收容所編號":"SA116-0007",
    "名稱":"力行國小",
    "鄉鎮":"文山區",
    "震災":"備用",
    "容納人數":60,
    "地址":"臺北市文山區樟腳里木新路三段155巷7號"
    }
  },
  {
    "type": "Feature",
    "geometry": {
       "type": "Point",
       "coordinates":  [ 121.5809783,25.058177 ]
    },
    "properties": {
    "收容所編號":"SA116-0008\n",
    "名稱":"木柵高工",
    "鄉鎮":"文山區",
    "震災":"備用",
    "容納人數":169,
    "地址":"臺北市文山區博嘉里木柵路四段77號"
    }
  },
  {
    "type": "Feature",
    "geometry": {
       "type": "Point",
       "coordinates":  [ 121.5157097,25.0563873 ]
    },
    "properties": {
    "收容所編號":"SA116-0009\n",
    "名稱":"木柵國小",
    "鄉鎮":"文山區",
    "震災":"備用",
    "容納人數":155,
    "地址":"臺北市文山區木柵里木柵路三段191號"
    }
  },
  {
    "type": "Feature",
    "geometry": {
       "type": "Point",
       "coordinates":  [ 121.5590765,24.9999707 ]
    },
    "properties": {
    "收容所編號":"SA116-0010\n",
    "名稱":"木柵國中",
    "鄉鎮":"文山區",
    "震災":"備用",
    "容納人數":56,
    "地址":"臺北市文山區木柵里木柵路三段102巷12號"
    }
  },
  {
    "type": "Feature",
    "geometry": {
       "type": "Point",
       "coordinates":  [ 121.5472741,24.9999353 ]
    },
    "properties": {
    "收容所編號":"SA116-0011\n",
    "名稱":"北政國中",
    "鄉鎮":"文山區",
    "震災":"備用",
    "容納人數":30,
    "地址":"臺北市文山區指南里指南路三段2巷14號"
    }
  },
  {
    "type": "Feature",
    "geometry": {
       "type": "Point",
       "coordinates":  [ 121.5521642,25.0025499 ]
    },
    "properties": {
    "收容所編號":"SA116-0012\n",
    "名稱":"永建國小",
    "鄉鎮":"文山區",
    "震災":"備用",
    "容納人數":175,
    "地址":"臺北市文山區華興里試院路2號\n木柵路一段311巷1號"
    }
  },
  {
    "type": "Feature",
    "geometry": {
       "type": "Point",
       "coordinates":  [ 121.5701196,25.0466379 ]
    },
    "properties": {
    "收容所編號":"SA116-0013\n",
    "名稱":"志清國小",
    "鄉鎮":"文山區",
    "震災":"備用",
    "容納人數":66,
    "地址":"臺北市文山區景仁里景福街21巷5號"
    }
  },
  {
    "type": "Feature",
    "geometry": {
       "type": "Point",
       "coordinates":  [ 121.5514273,25.0015727 ]
    },
    "properties": {
    "收容所編號":"SA116-0014\n",
    "名稱":"辛亥國小",
    "鄉鎮":"文山區",
    "震災":"備用",
    "容納人數":42,
    "地址":"臺北市文山區興昌里辛亥路四段103號"
    }
  },
  {
    "type": "Feature",
    "geometry": {
       "type": "Point",
       "coordinates":  [ 121.5497565,25.0049504 ]
    },
    "properties": {
    "收容所編號":"SA116-0015\n",
    "名稱":"明道國小",
    "鄉鎮":"文山區",
    "震災":"備用",
    "容納人數":291,
    "地址":"臺北市文山區明義里木柵路二段138巷61號"
    }
  },
  {
    "type": "Feature",
    "geometry": {
       "type": "Point",
       "coordinates":  [ 121.5507594,25.0017407 ]
    },
    "properties": {
    "收容所編號":"SA116-0016\n",
    "名稱":"武功國小",
    "鄉鎮":"文山區",
    "震災":"備用",
    "容納人數":315,
    "地址":"臺北市文山區萬祥里興隆路一段68號"
    }
  },
  {
    "type": "Feature",
    "geometry": {
       "type": "Point",
       "coordinates":  [ 121.5469154,25.0000753 ]
    },
    "properties": {
    "收容所編號":"SA116-0017\n",
    "名稱":"指南實小",
    "鄉鎮":"文山區",
    "震災":"備用",
    "容納人數":30,
    "地址":"臺北市文山區指南里指南路三段38巷5-2號"
    }
  },
  {
    "type": "Feature",
    "geometry": {
       "type": "Point",
       "coordinates":  [ 121.5146969,25.0256168 ]
    },
    "properties": {
    "收容所編號":"SA116-0018\n",
    "名稱":"博嘉實小",
    "鄉鎮":"文山區",
    "震災":"備用",
    "容納人數":30,
    "地址":"臺北市文山區博嘉里木柵路四段159巷14-1號"
    }
  },
  {
    "type": "Feature",
    "geometry": {
       "type": "Point",
       "coordinates":  [ 121.5273203,25.0186021 ]
    },
    "properties": {
    "收容所編號":"SA116-0019\n",
    "名稱":"景美女中",
    "鄉鎮":"文山區",
    "震災":"備用",
    "容納人數":300,
    "地址":"臺北市文山區樟文里木新路三段312號"
    }
  },
  {
    "type": "Feature",
    "geometry": {
       "type": "Point",
       "coordinates":  [ 121.4958359,25.0356553 ]
    },
    "properties": {
    "收容所編號":"SA116-0020\n",
    "名稱":"景美國小",
    "鄉鎮":"文山區",
    "震災":"備用",
    "容納人數":74,
    "地址":"臺北市文山區景行里景文街108號"
    }
  },
  {
    "type": "Feature",
    "geometry": {
       "type": "Point",
       "coordinates":  [ 121.5047147,25.0359735 ]
    },
    "properties": {
    "收容所編號":"SA116-0021\n",
    "名稱":"景美國中",
    "鄉鎮":"文山區",
    "震災":"備用",
    "容納人數":80,
    "地址":"臺北市文山區景華里景中街27號"
    }
  },
  {
    "type": "Feature",
    "geometry": {
       "type": "Point",
       "coordinates":  [ 121.5348482,25.0238736 ]
    },
    "properties": {
    "收容所編號":"SA116-0022\n",
    "名稱":"溪口國小",
    "鄉鎮":"文山區",
    "震災":"備用",
    "容納人數":90,
    "地址":"臺北市文山區景慶里景福街225號"
    }
  },
  {
    "type": "Feature",
    "geometry": {
       "type": "Point",
       "coordinates":  [ 121.5616848,25.0777662 ]
    },
    "properties": {
    "收容所編號":"SA116-0023\n",
    "名稱":"萬芳高中",
    "鄉鎮":"文山區",
    "震災":"備用",
    "容納人數":131,
    "地址":"臺北市文山區興光里興隆路三段115巷1號"
    }
  },
  {
    "type": "Feature",
    "geometry": {
       "type": "Point",
       "coordinates":  [ 121.5607499,25.07955 ]
    },
    "properties": {
    "收容所編號":"SA116-0024\n",
    "名稱":"萬芳國小",
    "鄉鎮":"文山區",
    "震災":"備用",
    "容納人數":135,
    "地址":"臺北市文山區萬芳里萬和街1號"
    }
  },
  {
    "type": "Feature",
    "geometry": {
       "type": "Point",
       "coordinates":  [ 121.6195187,25.040298 ]
    },
    "properties": {
    "收容所編號":"SA116-0025\n",
    "名稱":"萬福國小",
    "鄉鎮":"文山區",
    "震災":"備用",
    "容納人數":32,
    "地址":"臺北市文山區萬年里羅斯福五段170巷32號"
    }
  },
  {
    "type": "Feature",
    "geometry": {
       "type": "Point",
       "coordinates":  [ 121.5790792,25.0446527 ]
    },
    "properties": {
    "收容所編號":"SA116-0026\n",
    "名稱":"實踐國小",
    "鄉鎮":"文山區",
    "震災":"備用",
    "容納人數":75,
    "地址":"臺北市文山區樟文里忠順街一段4號"
    }
  },
  {
    "type": "Feature",
    "geometry": {
       "type": "Point",
       "coordinates":  [ 121.5798853,25.0430088 ]
    },
    "properties": {
    "收容所編號":"SA116-0027",
    "名稱":"實踐國中",
    "鄉鎮":"文山區",
    "震災":"備用",
    "容納人數":300,
    "地址":"臺北市文山區樟林里辛亥路七段67號"
    }
  },
  {
    "type": "Feature",
    "geometry": {
       "type": "Point",
       "coordinates":  [ 121.4985878,25.0308183 ]
    },
    "properties": {
    "收容所編號":"SA116-0028\n",
    "名稱":"興華國小",
    "鄉鎮":"文山區",
    "震災":"備用",
    "容納人數":30,
    "地址":"臺北市文山區興光里興隆路三段125巷6號"
    }
  },
  {
    "type": "Feature",
    "geometry": {
       "type": "Point",
       "coordinates":  [ 121.4917883,25.0266844 ]
    },
    "properties": {
    "收容所編號":"SA116-0029\n",
    "名稱":"興隆國小",
    "鄉鎮":"文山區",
    "震災":"備用",
    "容納人數":133,
    "地址":"臺北市文山區興旺里福興路2號"
    }
  },
  {
    "type": "Feature",
    "geometry": {
       "type": "Point",
       "coordinates":  [ 121.5656762,25.1075528 ]
    },
    "properties": {
    "收容所編號":"SA116-0030\n",
    "名稱":"興福國中",
    "鄉鎮":"文山區",
    "震災":"備用",
    "容納人數":300,
    "地址":"臺北市文山區興旺里福興路80號"
    }
  },
  {
    "type": "Feature",
    "geometry": {
       "type": "Point",
       "coordinates":  [ 121.5167604,25.0601292 ]
    },
    "properties": {
    "收容所編號":"SA116-0031\n",
    "名稱":"興德國小",
    "鄉鎮":"文山區",
    "震災":"備用",
    "容納人數":30,
    "地址":"臺北市文山區興邦里興隆路二段235號"
    }
  },
  {
    "type": "Feature",
    "geometry": {
       "type": "Point",
       "coordinates":  [ 121.541703,25.0452694 ]
    },
    "properties": {
    "收容所編號":"SA116-0032\n",
    "名稱":"興隆公園",
    "鄉鎮":"文山區",
    "震災":"是",
    "容納人數":1290,
    "地址":"臺北市文山區興業里興隆路二段154巷與仙岩路交叉口."
    }
  },
  {
    "type": "Feature",
    "geometry": {
       "type": "Point",
       "coordinates":  [ 121.5404347,25.040411 ]
    },
    "properties": {
    "收容所編號":"SA116-0037",
    "名稱":"忠順區民活動中心",
    "鄉鎮":"文山區",
    "震災":"備用",
    "容納人數":62,
    "地址":"臺北市文山區順興里臺北市文山區忠順街2段22號2樓"
    }
  },
  {
    "type": "Feature",
    "geometry": {
       "type": "Point",
       "coordinates":  [ 121.4661942,25.1263557 ]
    },
    "properties": {
    "收容所編號":"SA116-0038\n",
    "名稱":"景行區民活動中心",
    "鄉鎮":"文山區",
    "震災":"備用",
    "容納人數":123,
    "地址":"臺北市文山區景行里臺北市文山區羅斯福路六段393號6~9樓"
    }
  },
  {
    "type": "Feature",
    "geometry": {
       "type": "Point",
       "coordinates":  [ 121.4671448,25.1198847 ]
    },
    "properties": {
    "收容所編號":"SA116-0039\n",
    "名稱":"萬芳區民活動中心",
    "鄉鎮":"文山區",
    "震災":"備用",
    "容納人數":166,
    "地址":"臺北市文山區萬芳里臺北市文山區萬美街一段51號3樓"
    }
  },
  {
    "type": "Feature",
    "geometry": {
       "type": "Point",
       "coordinates":  [ 121.5778973,25.0849521 ]
    },
    "properties": {
    "收容所編號":"SA116-0040\n",
    "名稱":"萬福區民活動中心",
    "鄉鎮":"文山區",
    "震災":"備用",
    "容納人數":99,
    "地址":"臺北市文山區萬和里臺北市文山區萬隆街47之12號房屋地下層"
    }
  },
  {
    "type": "Feature",
    "geometry": {
       "type": "Point",
       "coordinates":  [ 121.5722755,25.0832926 ]
    },
    "properties": {
    "收容所編號":"SA116-0041\n",
    "名稱":"萬興區民活動中心",
    "鄉鎮":"文山區",
    "震災":"備用",
    "容納人數":206,
    "地址":"臺北市文山區萬興里臺北市文山區萬壽路27號7樓"
    }
  },
  {
    "type": "Feature",
    "geometry": {
       "type": "Point",
       "coordinates":  [ 121.5756889,25.0815933 ]
    },
    "properties": {
    "收容所編號":"SA116-0042",
    "名稱":"樟新區民活動中心",
    "鄉鎮":"文山區",
    "震災":"備用",
    "容納人數":279,
    "地址":"臺北市文山區樟新里臺北市文山區一壽街22號9~10樓"
    }
  },
  {
    "type": "Feature",
    "geometry": {
       "type": "Point",
       "coordinates":  [ 121.6010317,25.0725694 ]
    },
    "properties": {
    "收容所編號":"SA116-0043",
    "名稱":"樟腳區民活動中心",
    "鄉鎮":"文山區",
    "震災":"備用",
    "容納人數":97,
    "地址":"臺北市文山區樟腳里臺北市文山區恆光街45號7F~8F"
    }
  },
  {
    "type": "Feature",
    "geometry": {
       "type": "Point",
       "coordinates":  [ 121.5229496,25.1083492 ]
    },
    "properties": {
    "收容所編號":"SA116-0044\n",
    "名稱":"興隆區民活動中心",
    "鄉鎮":"文山區",
    "震災":"備用",
    "容納人數":165,
    "地址":"臺北市文山區興福里臺北市文山區興隆路二段97號4樓"
    }
  },
  {
    "type": "Feature",
    "geometry": {
       "type": "Point",
       "coordinates":  [ 121.5316033,25.110702 ]
    },
    "properties": {
    "收容所編號":"SA116-0054",
    "名稱":"興業區民活動中心",
    "鄉鎮":"文山區",
    "震災":"備用",
    "容納人數":238,
    "地址":"臺北市文山區興業里臺北市文山區興隆路二段160號10樓"
    }
  },
  {
    "type": "Feature",
    "geometry": {
       "type": "Point",
       "coordinates":  [ 121.5167356,25.069322 ]
    },
    "properties": {
    "收容所編號":"SA116-0055\n",
    "名稱":"興豐區民活動中心",
    "鄉鎮":"文山區",
    "震災":"備用",
    "容納人數":103,
    "地址":"臺北市文山區興豐里臺北市文山區興隆路二段95巷8號7~9樓"
    }
  },
  {
    "type": "Feature",
    "geometry": {
       "type": "Point",
       "coordinates":  { }
    },
    "properties": {
    "收容所編號":"",
    "名稱":"",
    "鄉鎮":"",
    "震災":"",
    "容納人數":null,
    "地址":""
    }
  }
]
}